stop_lat,zone_id,stop_lon,stop_id,stop_name,location_type
37.00914,,-76.35648,2031,KECOUGHTAN & REGENT,0
36.75995,,-76.25024,0835,BATTLEFIELD & ESSEX (mdblk),0
36.81557,,-76.24907,0834,BORDER & BERKLEY,0
36.75603,,-76.24857,0836,BATTLEFIELD & GIBSON,0
36.81191,,-76.24943,0831,STALHAM & FIRESIDE,0
36.81763,,-76.2519,0833,WINGFIELD & BERKLEY,0
36.80797,,-76.25607,0832,CAMPOSTELLA & VICKER,0
36.73071,,-76.2406,0839,BATTLEFIELD & NORTHFIELD,0
36.73468,,-76.24071,0838,BATTLEFIELD & GREAT BRIDGE,0
36.91633,,-76.23377,0547,LITTLE CREEK & BUFFALO,0
36.91568,,-76.23646,0546,LITTLE CREEK & MOOSE,0
36.91572,,-76.25255,0541,LITTLE CREEK & HAROLD,0
36.91271,,-76.25506,0540,TIDEWATER & LITTLE CREEK,0
36.9149,,-76.24617,0543,LITTLE DREEK & MERRITT,0
36.91523,,-76.25001,0542,LITTLE CREEK & SEWELLS POINT,0
36.91679,,-76.22999,0549,LITTLE CREEK & MEADOW CREEK,0
36.91676,,-76.23154,0548,LITTLE CREEK & BISON,0
36.86282,,-76.29458,0721,COLONIAL & GRAYDON,0
36.85957,,-76.29613,0720,COLONIAL & BOISSEVAIN,0
36.8658,,-76.29324,0723,COLONIAL & SHIRLEY,0
36.8638,,-76.29411,0722,COLONIAL & PRINCESS ANNE,0
36.86727,,-76.29261,0725,COLONIAL & WASHINGTON,0
36.8666,,-76.2929,0724,COLONIAL & SPOTSWOOD,0
36.87355,,-76.28984,0727,COLONIAL & 27TH,0
37.00794,,-76.39131,2319,G & PEMBROKE,0
36.87564,,-76.28891,0729,COLONIAL & 30TH,0
37.0049,,-76.39737,2317,PEMBROKE & CHILDS,0
36.99938,,-76.40393,2314,SHELL & GREENLAWN,0
37.00165,,-76.40229,2315,PEMBROKE & ABERDEEN,0
36.99601,,-76.40762,2312,35TH & ACORN,0
36.99763,,-76.40585,2313,SHELL & PARRISH,0
36.99363,,-76.41045,2310,35TH & CHESTNUT,0
36.99471,,-76.40905,2311,35TH & ABERDEEN,0
36.84801,,-76.19117,3773,KEMPSVILLE & CENTER 1,0
36.94483,,-76.23688,0059,OCEAN VIEW & WARWICK,0
36.84174,,-75.99632,3777,VIRGINIA BEACH & BIRDNECK,0
36.79797,,-76.08453,3776,HOLLAND & WARWICK,0
36.84661,,-76.19085,3775,KEMPSVILLE & CENTER 2,0
36.94554,,-76.27408,3774,GATE 4 NAVAL STATION,0
36.95361,,-76.25177,0053,DUFFYS & GRANBY,0
36.95141,,-76.25263,0052,GRANBY & SEAVIEW,0
36.94996,,-76.25426,0051,GRANBY & GOVERNMENT,0
36.94947,,-76.25481,0050,GRANBY & DUPRE,0
36.94733,,-76.2407,0056,OCEAN VIEW & CHESAPEAKE ST,0
36.94983,,-76.24585,0055,OCEAN VIEW & NORFOLK,0
36.95109,,-76.24792,0054,OCEAN VIEW & HAMMETT,0
37.02704,,-76.36727,2268,MICHIGAN & QUEEN,0
37.02621,,-76.36824,2269,QUEEN & BENTON,0
36.85044,,-76.25922,0619,CORPREW & OAKLAWN,0
36.85046,,-76.26102,0618,CORPREW & PRESIDENTIAL,0
36.84705,,-76.26999,0615,PARK & PRESIDENTIAL,0
36.85142,,-76.27772,0614,BRAMBLETON & TIDEWATER,0
36.85048,,-76.26287,0617,CORPREW & MARATHON,0
36.84919,,-76.26804,0616,PARK & BOND,0
36.85363,,-76.28323,0611,BRAMBLETON & POSEY,0
36.95632,,-76.2541,0610,OCEAN VIEW & FIRST VIEW,0
36.85301,,-76.28001,0613,BRAMBLETON & CHURCH,0
36.85338,,-76.28121,0612,BRAMBLETON & LINCOLN,0
37.01111,,-76.43274,2442,MARSHALL & HILTON,0
37.00917,,-76.43156,2443,MARSHALL & JAMES,0
37.01647,,-76.43289,2440,74TH & WICKHAM,0
37.01378,,-76.43442,2441,MARSHALL & 72ND,0
37.00444,,-76.4286,2446,MARSHALL & TEMPLE,0
37.00359,,-76.42808,2447,MARSHALL & GLOUCESTER 1,0
37.00763,,-76.43052,2444,MARSHALL & BRIARFIELD,0
36.79521,,-76.34733,2445,GUST & MARCY,0
37.00318,,-76.42782,2448,MARSHALL & GLOUCESTER 2,0
36.99986,,-76.4258,2449,MARSHALL & NANSEMOND,0
37.05066,,-76.42903,7866,BIG BETHEL & RADFORD 1,0
37.0295,,-76.34516,2046,KING & PEMBROKE,0
37.03065,,-76.34671,2047,HAMPTON TRANSFER CENTER (HTC),0
37.02737,,-76.34181,2045,EATON & MILL POINT,0
37.03314,,-76.33007,2042,PEMBROKE & CYPRESS,0
37.02361,,-76.35229,2040,KECOUGHTAN & CHAPEL,0
36.87598,,-76.25682,2041,LAFAYETTE & LENS,0
37.0359,,-76.34715,2048,KING & HUFFMAN,0
37.03681,,-76.34739,2049,KING & SALISBURY,0
36.88091,,-76.29483,0426,COLLEY & 39TH,0
36.87795,,-76.29489,0427,COLLEY & 35TH,0
36.82091,,-76.30121,9418,SEVENTH & MADISON,0
37.03848,,-76.38631,2839,COLISEUM & PINE CHAPEL,0
37.03001,,-76.36282,2838,LASALLE & MICHIGAN,0
36.8913,,-76.30192,0423,BOLLING & MONROE,0
36.84776,,-76.29157,9328,GRANBY & CITY HALL,0
36.84997,,-76.29042,9329,GRANBY & COLLEGE,0
36.87967,,-76.30375,0420,38TH & BOWDENS FERRY,0
36.84754,,-76.29181,9322,GRANBY & CITY HALL,0
36.84617,,-76.29222,9323,MAIN & GRANBY,0
36.85454,,-76.28873,9320,GRANBY & BRAMBLETON,0
36.87962,,-76.30528,0421,38TH & BLUESTONE,0
36.84576,,-76.28998,9326,MAIN & ATLANTIC,0
36.84629,,-76.29225,9327,MAIN & GRANBY,0
36.84565,,-76.28986,9324,MAIN & ATLANTIC,0
37.0245,,-76.35337,2834,SETTLERS LANDING & STEWART,0
36.8615,,-76.39248,2688,CHURCHLAND & HIGH,0
37.14425,,-76.51471,2689,DENBIGH & MCMANUS,0
37.13141,,-76.5326,2684,DENBIGH & ORIANA,0
37.13673,,-76.5234,2685,DENBIGH & MILLWOOD,0
37.13807,,-76.52063,2686,DENBIGH & JEFFERSON 1,0
37.13918,,-76.51919,2687,DENBIGH & JEFFERSON 2,0
37.12106,,-76.52629,2680,WARWICK & BLAND,0
37.12313,,-76.52902,2681,WARWICK & SHERWOOD,0
37.12517,,-76.53169,2682,WARWICK & CAMPBELL,0
37.12916,,-76.53689,2683,WARWICK & DENBIGH,0
36.83861,,-76.13684,1434,INDEPENDENCE & BONNEY,0
36.8204,,-76.12161,1435,HOLLAND & S. PLAZA,0
36.85686,,-76.02574,1432,FIRST COLONIAL & SOUTHHALL,0
36.79501,,-76.09392,1433,LYNNHAVEN & PRIMROSE,0
36.83319,,-76.3315,1623,CUTHERELL & MCKINLEY,0
37.09307,,-76.44764,3206,DAPHIA & SAUNDERS 2,0
36.82943,,-76.33172,1621,TURNPIKE & PHILLIPS,0
36.82762,,-76.33473,1620,TURNPIKE & HOWARD,0
36.94262,,-76.32226,5186,VIRGINIA & COLD STORAGE,0
37.0976,,-76.45587,3202,HARPERSVILLE & WENDFIELD,0
36.83461,,-76.33427,1625,HIGH & WATSON,0
36.83445,,-76.33255,1624,CUTHERELL & HIGH,0
37.09247,,-76.44545,3209,DAPHIA & SAUNDERS 1,0
37.0918,,-76.44594,3208,DAPHIA & SAINT EGNATIOS,0
37.06246,,-76.40689,2860,BUTLER FARM & LUCAS 3,0
37.06293,,-76.40528,2861,BUTLER FARM & MAGRUDER 1,0
37.06326,,-76.40201,2862,BUTLER FARM & MAGRUDER 2,0
37.06406,,-76.38991,2863,BUTLER FARM & WATTS,0
37.06419,,-76.38607,2864,ARMISTEAD & BUTLER FARM,0
37.06836,,-76.38479,2865,ARMISTEAD & SACRAMENTO,0
37.07178,,-76.38266,2866,ARMISTEAD & POTTER,0
37.0742,,-76.35035,2867,HAMMOND & KING,0
37.08641,,-76.39505,2868,MAGRUDER & FLOYD THOMPSON,0
37.0935,,-76.39418,2869,SEMPLE FARM & ARMISTEAD,0
36.87511,,-76.21512,1199,PRINCESS ANNE & KILMER,0
36.87399,,-76.21787,1198,PRINCESS ANNE & GABRIEL,0
36.8444,,-76.36658,3348,HIGH & DUKE,0
36.8181,,-76.3204,3349,PORTSMOUTH & STAUNTON,0
36.8668,,-76.23424,1191,PRINCESS ANNE & AZALEA GARDEN 2,0
36.86665,,-76.23539,1190,PRINCESS ANNE & AZALEA GARDEN 1,0
36.86774,,-76.22958,1193,PRINCESS ANNE & SEWELLS POINT,0
36.86714,,-76.23091,1192,PRINCESS ANNE & JUNIPER,0
36.87075,,-76.22385,1195,PRINCESS ANNE & MCNEAL,0
36.86898,,-76.22715,1194,PRINCESS ANNE & NORCOVA,0
36.81047,,-76.27766,3344,BAINBRIDGE & HOLLY,0
36.87193,,-76.22167,1196,PRINCESS ANNE & RIVER OAKS,0
36.81246,,-76.32806,1759,DEEP CREEK & EDISON,0
36.80897,,-76.32907,1758,DEEP CREEK & DEKALB,0
36.80649,,-76.32923,1757,GREENWOOD & DEEP CREEK,0
36.80637,,-76.33252,1756,GREENWOOD & MAUPIN,0
36.80623,,-76.33563,1755,GREENWOOD & INDEPENDENCE,0
36.80705,,-76.34802,1752,MCLEAN & GYGAX,0
36.85517,,-76.26945,1177,PRINCESS ANNE & HANSON,0
36.85613,,-76.27238,1176,PRINCESS ANNE & TIDEWATER,0
36.85705,,-76.2752,1175,PRINCESS ANNE & CHAPEL,0
36.85773,,-76.27713,1174,PRINCESS ANNE & WIDE,0
36.8582,,-76.27859,1173,PRINCESS ANNE & CHURCH,0
36.85976,,-76.28343,1172,PRINCESS ANNE & SALTER,0
36.86098,,-76.28864,1170,PRINCESS ANNE & GRANBY,0
36.85376,,-76.26424,1179,PRINCESS ANNE & PARK,0
36.85463,,-76.2677,1178,PRINCESS ANNE & RESERVOIR (BTHS),0
37.05677,,-76.39134,5530,MEDICAL & COLISEUM,0
36.83941,,-75.97406,5536,PACIFIC & 11TH,0
36.76668,,-76.01365,5534,GENERAL BOOTH & LONDON BRIDGE,0
36.83445,,-75.97251,1285,PACIFIC & 6TH,0
36.84406,,-75.97521,1287,PACIFIC & 16TH,0
36.83925,,-75.97389,1286,PACIFIC & 11TH,0
36.86017,,-75.97968,1281,PACIFIC & 32ND,0
36.86112,,-75.97992,1280,PACIFIC & 33RD,0
36.85199,,-75.97748,1283,PACIFIC & 24TH,0
36.85436,,-75.97811,1282,PACIFIC & 26TH,0
36.81729,,-76.26612,1289,LIBERTY & OLD ATLANTIC,0
36.80344,,-76.26301,1288,ATLANTIC & NARROW,0
36.79756,,-76.32579,1579,GEORGE WASHINGTON & WOODLAND,0
36.79632,,-76.32654,1578,GEORGE WASHINGTON & RODGERS,0
36.81022,,-76.35834,1571,VICTORY & ELMHURST,0
36.81105,,-76.35245,1570,MCLEAN & BELMONT,0
36.79523,,-76.32907,1577,VICTORY & HURON,0
36.79571,,-76.33202,1576,VICTORY & SEBAGO,0
36.79598,,-76.3353,1575,VICTORY & DEEP CREEK,0
36.78409,,-76.09668,1530,UNIVERSITY & FACULTY,0
36.84105,,-76.19023,8011,NEWTOWN,0
36.84146,,-76.21313,8010,MILITARY,0
37.01905,,-76.35259,2037,KECOUGHTAN & COLUMBIA,0
37.01625,,-76.35286,2036,KECOUGHTAN & SUNSET,0
37.00235,,-76.44335,5627,NORTH GATE GRUMMAN SHELTER,0
36.80888,,-76.2136,5622,COLLEGE PARK & BRYNMAWR,0
36.80896,,-76.21379,5621,COLLEGE PARK & BENNINGTON,0
36.82133,,-76.05294,5620,PRECISION & LONDON BRIDGE,0
36.86707,,-76.02969,1371,FIRST COLONIAL & CAMELOT,0
36.84035,,-76.06373,1370,LYNNHAVEN & SOUTHERN,0
36.87231,,-76.031,1372,MILL DAM & TEMPLETON,0
36.89522,,-76.06006,1375,GREAT NECK & GREEN HILL,0
36.88429,,-76.04719,1374,GREAT NECK & GODFREY,0
36.91123,,-76.07242,1377,SHORE & EBB TIDE,0
36.91213,,-76.06958,1376,SHORE & GREAT NECK,0
36.90755,,-76.10813,1379,SHORE & SHADY OAKS,0
36.90797,,-76.09711,1378,SHORE & STRATFORD,0
37.0095,,-76.35525,2032,KECOUGHTAN & ARMSTRONG,0
36.83311,,-76.26224,3836,CAMPOSTELLA & ELKIN,0
37.01347,,-76.37231,2331,SHELL & MELVILLE,0
36.83052,,-76.254,3831,INDIAN RIVER & FORD,0
36.85233,,-76.27881,3832,BRAMBLETON & CHAPEL,0
36.85357,,-76.27503,3833,TIDEWATER & BAGNALL,0
37.00835,,-76.35902,2030,KECOUGHTAN & LASALLE,0
36.82571,,-76.26428,3838,MELON & VINE,0
36.82493,,-76.26665,3839,BERKLEY & CRYSTAL,0
36.72547,,-76.24136,0840,BATTLEFIELD & TILDEN,0
36.72181,,-76.24041,0841,BATTLEFIELD & LOCKS,0
36.71795,,-76.23957,0842,BATTLEFIELD & ALBEMARLE,0
36.71561,,-76.24885,0843,SHEA & CONQUEST (City Hall),0
36.71955,,-76.2872,0844,CEDAR & LAS GAVIOTAS,0
36.72491,,-76.29538,0845,CEDAR & CAHOON (TCC),0
36.71703,,-76.23917,0846,BATTLEFIELD & CEDAR,0
36.73,,-76.24075,0849,BATTLEFIELD & WELCH,0
36.87469,,-76.2646,0530,TIDEWATER & SAINT DENIS,0
36.87613,,-76.26408,0532,TIDEWATER & BELLEVUE,0
36.87984,,-76.26265,0534,TIDEWATER & PERSHING,0
36.88353,,-76.2612,0535,TIDEWATER & ALSACE,0
36.88523,,-76.26057,0536,TIDEWATER & BAPAUME,0
36.8878,,-76.25967,0537,TIDEWATER & WILLOW WOOD,0
36.89085,,-76.25851,0538,TIDEWATER & NORVIEW,0
36.90151,,-76.25638,0539,TIDEWATER & WIDGEON,0
36.87214,,-76.29049,0726,COLONIAL & 25TH,0
36.87495,,-76.28922,0728,COLONIAL & 29TH,0
36.93167,,-76.24426,0348,CHESAPEAKE & FISHERMANS (mdblk bet Bayview & Fish),0
37.01358,,-76.36606,2333,VICTORIA & ALGONQUIN,0
36.82345,,-76.26982,1244,WILSON & LANDSWORTH,0
37.09393,,-76.44774,3205,DAPHIA & SAUNDERS 1,0
36.99273,,-76.41271,2309,35TH & ROANOKE,0
36.99163,,-76.41547,2308,35TH & ORCUTT,0
36.87142,,-76.27577,0288,26TH & RUFFIN,0
36.87277,,-76.27354,0289,26TH & VILLA,0
36.87036,,-76.27774,0286,26TH & GAZEL,0
36.98034,,-76.42982,2300,28TH & HUNTINGTON,0
36.95429,,-76.25551,0284,FIRST VIEW & BALVIEW,0
36.87015,,-76.27904,0285,26TH & FAWN,0
36.75651,,-76.00828,0282,ELSON GREEN & UPTON,0
36.7622,,-76.00834,0283,NIMMO & UPTON,0
36.991,,-76.41704,2307,35TH & WICKHAM,0
36.86918,,-76.30085,0281,HAMPTON & SPOTSWOOD,0
36.86273,,-76.25041,0992,BALLENTINE & TARRANT,0
36.86099,,-76.24821,0993,PRINCESS ANNE & RAILROAD,0
36.86783,,-76.25169,0990,BALLENTINE & TAIT,0
36.86598,,-76.25121,0991,BALLENTINE & MCLEMORE,0
36.86398,,-76.27902,0448,CHURCH & 18TH,0
36.85546,,-76.24874,0997,BALLENTINE & HOLLISTER,0
36.86288,,-76.24443,0994,PRINCESS ANNE & INGLESIDE 1,0
36.86315,,-76.24387,0995,PRINCESS ANNE & INGLESIDE 2,0
36.86862,,-76.28996,0444,21ST & DEBREE,0
36.86808,,-76.28747,0445,21ST & LLEWELLYN,0
36.85745,,-76.24901,0998,BALLENTINE & DOGAN,0
36.86656,,-76.28499,0447,20TH & MONTICELLO,0
36.88454,,-76.30817,0440,ELKHORN & 43RD,0
36.87954,,-76.30482,0441,38TH & BOWDENS FERRY,0
36.87103,,-76.29649,0442,21ST & COLLEY,0
36.86938,,-76.29289,0443,21ST & COLONIAL,0
36.88492,,-76.30262,0264,HAMPTON & 45TH,0
36.88285,,-76.30252,0265,HAMPTON & 43RD,0
36.88151,,-76.30239,0266,HAMPTON & 40TH,0
36.87568,,-76.30201,0267,HAMPTON & 25TH,0
36.89223,,-76.30412,0260,HAMPTON & BRUNSWICK,0
36.89078,,-76.3039,0261,HAMPTON & BOLLING,0
36.88712,,-76.30277,0262,HAMPTON & 49TH,0
36.88634,,-76.3027,0263,HAMPTON & 47TH,0
36.87145,,-76.30137,0268,HAMPTON & WOODROW,0
36.86736,,-76.30049,0269,HAMPTON & MAURY,0
37.02606,,-76.38507,2275,QUEEN & BUCKINGHAM,0
37.02578,,-76.38194,2274,QUEEN & INLANDVIEW (Tidewater Apt.),0
37.03444,,-76.39257,2277,POWER PLANT & PINE CHAPEL,0
36.81125,,-76.36323,2276,AIRLINE & HYMAN,0
37.02495,,-76.37231,2271,QUEEN & RED ROBIN,0
37.02588,,-76.37002,2270,QUEEN & MCDONALD,0
37.02396,,-76.37431,2272,QUEEN & ADRIAN,0
37.04641,,-76.39632,2279,EXECUTIVE & CUNNINGHAM 1,0
36.80985,,-76.36683,2278,AIRLINE & WESTGATE PLAZA,0
36.90574,,-76.24351,0668,SEWELLS POINT & KENNEDY,0
36.90449,,-76.243,0669,SEWELLS POINT & KITTRELL,0
36.79377,,-76.23456,0198,OLD GREENBRIAR & JUNIPER,0
36.79414,,-76.23447,0199,OLD GREENBRIAR & JUNIPER,0
37.02031,,-76.36137,2337,SHELL & WORSTER,0
36.86046,,-76.28691,0192,MONTICELLO & PRINCESS ANNE,0
36.90665,,-76.24386,0661,SEWELLS POINT & KANE,0
36.90829,,-76.2447,0662,SEWELLS POINT & AVENUE E,0
36.91143,,-76.24629,0663,SEWELLS POINT & AVENUE H,0
36.91326,,-76.24776,0664,SEWELLS POINT & AVENUE I,0
36.91248,,-76.24712,0665,SEWELLS POINT & AVENUE I,0
36.85763,,-76.28681,0194,MONTICELLO & VIRGINIA BEACH,0
36.85512,,-76.28706,0195,MONTICELLO & STARKE,0
36.99123,,-76.40885,2459,CHESTNUT & 32ND,0
36.99391,,-76.41388,2458,ROANOKE & 37TH,0
36.99676,,-76.41848,2455,ORCUTT & 43RD,0
36.99546,,-76.41786,2454,41ST & ORCUTT,0
36.99437,,-76.41414,2457,ROANOKE & 38TH,0
36.99657,,-76.4155,2456,ROANOKE & 41ST,0
36.99584,,-76.42332,2451,MARSHALL & 44TH,0
36.99839,,-76.42492,2450,MARSHALL & 48TH,0
36.99496,,-76.41941,2453,41ST & NEWSOME,0
36.99403,,-76.42151,2452,41ST & MARSHALL,0
37.04169,,-76.34834,2051,KING & PLAZA,0
37.03946,,-76.34815,2050,KING & RIP RAP,0
37.04445,,-76.35419,2053,DOOLITTLE & LANGLEY SQUARE,0
37.04417,,-76.35098,2052,SALEM & DOOLITTLE,0
37.04463,,-76.35863,2054,DOOLITTLE & SELDENDALE,0
37.03948,,-76.3731,2057,ARMISTEAD & WESTMINSTER,0
37.03639,,-76.36689,2056,ARMISTEAD & LAKE HAMPTON,0
37.03989,,-76.37843,2059,PINE CHAPEL & BARRACK,0
37.04104,,-76.37641,2058,ARMISTEAD & PINE CHAPEL,0
36.93746,,-76.22025,0067,OCEAN VIEW & INLET,0
36.94039,,-76.22861,0064,OCEAN VIEW & BEAUMONT,0
36.9392,,-76.22538,0065,OCEAN VIEW & GROVE,0
36.94204,,-76.2319,0062,OCEAN VIEW & STURGIS,0
36.80271,,-76.13238,1506,PRINCESS ANNE & PLAZA,0
36.80007,,-76.35181,3779,VICTORY & GREENWOOD,0
36.93646,,-76.21722,0068,OCEAN VIEW & 1ST BAY,0
36.93546,,-76.21459,0069,OCEAN VIEW & 2ND BAY,0
36.78313,,-76.33438,3778,GEORGE WASHINGTON & WOODLAND,0
36.85452,,-76.28861,9330,GRANBY & BRAMBLETON,0
36.82718,,-76.16218,1508,PRINCESS ANNE & OVERLAND,0
36.99743,,-76.43083,3225,JEFFERSON & 50TH,0
37.13274,,-76.53116,2699,DENBIGH & POCAHANTAS,0
37.13692,,-76.52328,2698,DENBIGH & SAINT ANDREWS,0
37.138,,-76.52101,2697,DENBIGH & JEFFERSON 2,0
37.13952,,-76.51915,2696,DENBIGH & JEFFERSON 1,0
37.14246,,-76.51661,2695,DENBIGH & CEDARWOOD,0
37.1445,,-76.51476,2694,DENBIGH & MCMANUS,0
37.14636,,-76.51309,2693,DENBIGH & RIDGEWOOD,0
37.14861,,-76.50542,2692,OLD DENBIGH & WOODSIDE,0
37.1489,,-76.51056,2691,DENBIGH & OLD DENBIGH,0
37.14612,,-76.51304,2690,DENBIGH & RIDGEWOOD,0
36.81705,,-76.36546,1602,PORTSMOUTH & CATAWBA,0
36.77881,,-76.09647,3221,PRINCESS ANNE & CONCERT 2,0
36.98847,,-76.42532,3220,JEFFERSON & 36TH,0
36.99488,,-76.42926,3223,JEFFERSON & 46TH,0
36.85826,,-76.28453,3222,SALTER & PRINCESS ANNE,0
36.79485,,-76.09398,1362,LYNNHAVEN & PRIMROSE,0
37.01536,,-76.44191,3232,JEFFERSON & RIVERLAND,0
37.00886,,-76.4379,3230,JEFFERSON & HILTON,0
37.01153,,-76.43955,3231,JEFFERSON & 72ND,0
37.02583,,-76.44834,3237,JEFFERSON & WILCOX,0
36.82419,,-76.34035,1618,TURNPIKE & LENORA,0
36.82545,,-76.33831,1619,TURNPIKE & FREDERICK,0
36.81512,,-76.35548,1616,MCLEAN & TURNPIKE,0
36.81928,,-76.34844,1617,TURNPIKE & UTAH,0
36.81819,,-76.37244,1614,PORTSMOUTH & BYERS,0
36.8143,,-76.35526,1615,MCLEAN & COURT,0
36.81935,,-76.37918,1612,PORTSMOUTH & HAYSOM,0
36.81848,,-76.37418,1613,PORTSMOUTH & STANLEY,0
36.8217,,-76.42099,1610,PORTSMOUTH & CAPRI,0
36.82079,,-76.3874,1611,PORTSMOUTH & ROBIN,0
36.79636,,-76.08832,1363,LYNNHAVEN & CRIMSON HOLLY,0
37.0859,,-76.3821,2873,ARMISTEAD & FLOYD THOMPSON,0
37.0887,,-76.38414,2872,ARMISTEAD & SONNY HUCHINS,0
37.14519,,-76.52519,2871,JEFFERSON & HANOVER,0
37.09256,,-76.39015,2870,ARMISTEAD & SPINNAKER,0
37.06417,,-76.39006,2877,BUTLER FARM & WATTS,0
37.06502,,-76.38614,2876,ARMISTEAD & BUTLER FARM,0
37.06817,,-76.3851,2875,ARMISTEAD & SACRAMENTO,0
37.07007,,-76.38395,2874,ARMISTEAD & NETTLES,0
37.05604,,-76.39829,2879,HARDY CASH & EXECUTIVE,0
37.05595,,-76.40107,2878,HARDY CASH & HAMPTON CLUB,0
36.79589,,-76.11554,3355,LYNHAVEN & AMBERLEY FOREST,0
36.85661,,-76.28004,3354,VIRGINIA BEACH & LINCOLN,0
37.04627,,-76.39481,3357,CUNNINGHAM & EXECUTIVE,0
37.09886,,-76.47593,3356,CANON & ACHIEVEMENT,0
36.84417,,-76.07322,3351,VIRGINIA BEACH & LYNNHAVEN,0
37.08492,,-76.47255,3358,THIMBLE SHOALS & MOBJACK,0
36.82415,,-76.3215,1768,LINCOLN & DEEP CREEK,0
36.82417,,-76.3206,1769,LINCOLN & AZALEA,0
36.79378,,-76.09897,1361,ROSEMONT & PRIMROSE,0
36.82008,,-76.32445,1762,COLUMBUS & LEXINGTON,0
36.82103,,-76.32489,1763,COLUMBUS & JEFFERSON,0
36.81457,,-76.32929,1760,DEEP CREEK & PENNOCK,0
36.81771,,-76.32684,1761,DEEP CREEK & FREDERICK,0
36.82406,,-76.32432,1766,LINCOLN & NASHVILLE,0
36.82409,,-76.32339,1767,LINCOLN & EVERGREEN,0
36.82251,,-76.32497,1764,COLUMBUS & PALMER,0
36.824,,-76.32503,1765,COLUMBUS & LINCOLN,0
36.85584,,-76.20793,1142,VIRGINIA BEACH & MILITARY,0
36.85606,,-76.21453,1143,VIRGINIA BEACH & BRIAR HILL,0
36.85546,,-76.19763,1140,VIRGINIA BEACH & BURLING,0
36.85566,,-76.2025,1141,VIRGINIA BEACH & GLENROCK,0
36.85613,,-76.23186,1146,VIRGINIA BEACH & AZALEA GARDEN 1,0
36.8527,,-76.24988,1147,VIRGINIA BEACH & BALLENTINE,0
36.85631,,-76.21899,1144,VIRGINIA BEACH & RABY,0
36.85639,,-76.22187,1145,VIRGINIA BEACH & PECAN POINT,0
36.85237,,-76.25277,1148,VIRGINIA BEACH & MERRIMAC,0
36.85231,,-76.25511,1149,VIRGINIA BEACH & NORCHESTER,0
36.82326,,-76.26273,5509,BERKLEY & VERNON,0
36.81921,,-76.31102,1546,PORTSMOUTH & ELM 1,0
36.81941,,-76.31284,1547,PORTSMOUTH & ELM 2,0
36.81697,,-76.32589,1544,PORTSMOUTH & FREDERICK,0
36.81888,,-76.30904,1543,PORTSMOUTH & CHESTNUT,0
36.81514,,-76.14453,1540,PRINCESS ANNE & EDWIN,0
36.82561,,-76.15878,1541,PRINCESS ANNE & FOREST,0
37.03596,,-76.39559,2383,POWER PLANT & TALL PINE,0
36.81859,,-76.31839,1549,PORTSMOUTH & DES MOINES,0
37.03707,,-76.39807,2382,POWER PLANT & QUEEN,0
36.85887,,-76.29642,0203,OLNEY & COLONIAL,0
36.77978,,-76.33745,1784,CAMELOT & GEORGE WASHINGTON,0
36.78324,,-76.34663,1785,KING AUTHUR & AARON,0
37.02607,,-76.3563,2262,QUEEN & BACKRIVER,0
37.02609,,-76.35824,2263,QUEEN & MAPLEWOOD,0
37.04364,,-76.38946,2841,COLISEUM & MERCURY,0
37.02575,,-76.35047,2260,QUEEN & ARMISTEAD,0
36.81601,,-76.36149,5618,PORTSMOUTH & MOHAWK,0
37.02585,,-76.35327,2261,QUEEN & STEWART,0
37.02936,,-76.35276,5612,PEMBROKE & WAVERLY,0
37.02835,,-76.3629,2266,LASALLE & GEORGIA,0
36.85803,,-75.9791,5718,PACIFIC & 30TH,0
36.82017,,-76.32467,5616,COLUMBUS & LEXINGTON,0
36.93466,,-76.25412,5617,TIDEWATER & NEW,0
36.95933,,-76.26026,5614,OCEAN VIEW & 4TH VIEW,0
37.02891,,-76.36705,2267,MICHIGAN & LASALLE,0
36.90789,,-76.10005,1388,SHORE & ROCKBRIDGE,0
37.02611,,-76.35994,2264,QUEEN & DOGWOOD,0
36.90426,,-76.12596,1384,SHORE & GREENWELL,0
36.90548,,-76.11992,1385,SHORE & TREASURE ISLAND,0
36.90733,,-76.10761,1386,SHORE & SUNVISTA,0
36.90772,,-76.10266,1387,SHORE & MYSTIC COVE,0
36.90703,,-76.11311,1380,SHORE & BAYVILLE,0
36.90579,,-76.11963,1381,SHORE & TREASURE ISLAND,0
36.90491,,-76.12394,1382,SHORE & TREASURE ISLAND (mid-block),0
36.90443,,-76.12637,1383,SHORE & VANTAGE,0
36.81313,,-76.25846,3826,PARKSIDE & CAMPOSTELLA,0
36.80548,,-76.2558,3825,CAMPOSTELLA & HUNTERDALE,0
36.71354,,-76.25379,3823,CEDAR & BARTELL,0
36.70991,,-76.26483,3822,CEDAR & PINES OF WARRICK,0
36.71481,,-76.28157,3821,CEDAR & CEDAR COMMONS,0
36.71958,,-76.28751,3820,CEDAR & LAS GAVIOTAS,0
36.75823,,-76.24935,0853,BATTLEFIELD & LENORE,0
36.7549,,-76.24783,0852,BATTLEFIELD & OAK GROVE,0
36.74543,,-76.2444,0851,BATTLEFIELD & MEDICAL,0
36.74108,,-76.2428,0850,BATTLEFIELD & GAINSBOROUGH,0
36.81576,,-76.25879,0857,BORDER & BETHEL,0
36.81368,,-76.2491,0856,STALHAM & SHADY,0
36.81163,,-76.24963,0855,STALHAM & FIRESIDE,0
36.76269,,-76.25094,0854,BATTLEFIELD & THRASHER,0
36.82261,,-76.26107,0859,BERKLEY & CAMPOSTELLA,0
36.85268,,-76.27517,0521,TIDEWATER & OLNEY,0
36.85148,,-76.27571,0520,TIDEWATER & BRAMBLETON,0
36.86782,,-76.2683,0527,TIDEWATER & VISTA,0
36.85872,,-76.27246,0524,TIDEWATER & GOFF,0
36.87203,,-76.26557,0529,TIDEWATER & SHOOP,0
36.87077,,-76.26608,0528,TIDEWATER & HANCOCK,0
36.81526,,-76.06803,1368,LYNNHAVEN  MALL,0
36.83593,,-76.30684,5202_merged_67031,HIGH & QUEEN,0
37.04847,,-76.47442,2766,WARWICK & OLD HARPERSVILLE,0
37.10764,,-76.49553,5271,JEFFERSON & HQ,0
36.87556,,-76.2551,0298,LAFAYETTE & MARNE,0
36.87494,,-76.26969,0291,LAFAYETTE & DUPONT 2,0
36.8742,,-76.27115,0290,LAFAYETTE & DUPONT 1,0
36.87808,,-76.2655,0293,LAFAYETTE & LORRAINE,0
36.87774,,-76.2671,0292,LAFAYETTE & BELLEVUE (midblk before Lorraine),0
36.87733,,-76.26235,0295,LAFAYETTE & SOMME,0
36.87766,,-76.26373,0294,LAFAYETTE & TIDEWATER,0
36.87642,,-76.2587,0297,LAFAYETTE & SAINT MIHIEL,0
36.87712,,-76.26145,0296,LAFAYETTE & DUNKIRK,0
36.86968,,-76.25216,0989,BALLENTINE & DAVIS,0
36.87145,,-76.25259,0988,BALLENTINE & PETERSON,0
36.88322,,-76.30665,0458,ELKHORN & 43RD ST,0
36.88614,,-76.31262,0456,POWHATAN/48TH,0
36.85382,,-76.28504,0455,BRAMBLETON & SAINT PAULS,0
36.85164,,-76.28324,0454,WOOD & POSEY,0
36.93709,,-76.25426,0981,TIDEWATER & BECK,0
36.93362,,-76.25373,0980,TIDEWATER & BAYVIEW,0
36.85538,,-76.27969,0451,CHURCH & NICHOLSON,0
36.85679,,-76.27531,0450,CHAPEL & PRINCESS ANNE,0
36.85737,,-76.29336,0276,OLNEY & MOWBRAY ARCH 2,0
36.85948,,-76.29803,0275,OLNEY & MOWBRAY ARCH 1,0
36.864,,-76.30138,0272,REDGATE & COLLEY,0
36.87684,,-76.28195,0185,GRANBY & 33RD,0
36.87864,,-76.28224,0184,GRANBY & 35TH,0
36.87286,,-76.28161,0187,MONTICELLO & 29TH,0
36.87379,,-76.28131,0186,GRANBY & MONTICELLO,0
36.89063,,-76.27918,0181,GRANBY & WILLOW WOOD,0
36.89289,,-76.27905,0180,GRANBY & ARDEN,0
36.88007,,-76.28224,0183,GRANBY & 37TH,0
36.88557,,-76.28146,0182,GRANBY & 42ND,0
37.02601,,-76.36878,2208,QUEEN & MICHIGAN,0
37.02697,,-76.36676,2209,MICHIGAN & QUEEN,0
36.86613,,-76.28458,0189,MONTICELLO & 19TH,0
36.87023,,-76.28279,0188,MONTICELLO & 25TH,0
36.88489,,-76.23535,0679,SEWELLS POINT & TEXAS,0
36.88763,,-76.23729,0678,SEWELLS POINT & HAMPSHIRE,0
36.90197,,-76.25453,0673,WIDGEON & WHITEHORN,0
36.9024,,-76.25048,0672,WIDGEON & PUGH,0
36.90242,,-76.24722,0671,WIDGEON & THAXTON,0
36.90247,,-76.24472,0670,WIDGEON & MINNIE,0
36.8891,,-76.23832,0677,SEWELLS POINT & CHESAPEAKE,0
36.89302,,-76.23898,0676,SEWELLS POINT & GREENWOOD,0
36.8971,,-76.24127,0675,SEWELLS POINT & QUAIL,0
36.898,,-76.24195,0674,SEWELLS POINT & MIDDLETON,0
37.01795,,-76.42892,2428,74TH & ROANOKE,0
37.01926,,-76.42962,2429,ROANOKE & 76TH,0
37.00549,,-76.4291,2420,MARSHALL & TEMPLE,0
37.00792,,-76.43058,2421,MARSHALL & BRIARFIELD,0
37.00905,,-76.43135,2422,MARSHALL & JAMES,0
37.01099,,-76.43254,2423,MARSHALL & HILTON,0
37.01366,,-76.43422,2424,MARSHALL & 72ND,0
37.01535,,-76.43527,2425,MARSHALL & 74TH,0
37.01643,,-76.43275,2426,74TH & WICKHAM,0
37.01703,,-76.43121,2427,74TH & ORCUTT,0
36.93389,,-76.20863,0071,OCEAN VIEW & 7TH BAY,0
36.93484,,-76.21234,0070,OCEAN VIEW & 4TH BAY,0
36.93311,,-76.2056,0072,OCEAN VIEW & 10TH BAY,0
36.93139,,-76.19873,0075,OCEAN VIEW & 16TH BAY,0
36.98103,,-76.40578,2519,ROANOKE & 18TH,0
36.93073,,-76.19498,0077,OCEAN VIEW & 19TH BAY,0
36.929,,-76.19161,0079,SHORE & 22ND BAY,0
36.97966,,-76.40083,2515,GARDEN & ROANOKE,0
36.98147,,-76.40053,2516,GARDEN & 16TH,0
36.98094,,-76.40233,2517,16TH & CHESTNUT,0
36.97834,,-76.40913,2510,WICKHAM & 16TH,0
36.97893,,-76.40715,2511,16TH & TEEN,0
36.97907,,-76.40469,2512,ROANOKE & 15TH,0
36.9781,,-76.40376,2513,ROANOKE & GARDEN 1,0
37.12476,,-76.53165,2734,WARWICK & TABBS,0
37.1225,,-76.52869,2735,WARWICK & SHERWOOD,0
37.11976,,-76.52511,2736,WARWICK & BLAND,0
37.11794,,-76.52274,2737,WARWICK & CAMPBELL,0
37.13911,,-76.5466,2730,WARWICK & LUCAS CREEK,0
37.13266,,-76.54256,2731,WARWICK & OLD COURTHOUSE,0
37.13009,,-76.53861,2732,WARWICK & ORIANA,0
37.1283,,-76.53627,2733,WARWICK & DENBIGH,0
37.11639,,-76.5211,2738,WARWICK & BEAMER (far),0
37.11339,,-76.51898,2739,WARWICK & COLONY,0
36.84251,,-76.02022,5058,VIRGINIA BEACH & FIRST COLONIAL,0
36.89896,,-76.24241,9181,PHILPOTTS & SEWELLS POINT,0
36.81659,,-76.32769,1815,PORTSMOUTH & DEEP CREEK,0
36.81566,,-76.33959,1816,PORTSMOUTH & TRUXTON,0
36.81604,,-76.33418,1810,PORTSMOUTH & ARCADIA,0
36.81592,,-76.33626,1811,PORTSMOUTH & MAGNOLIA,0
36.81574,,-76.33991,1813,PORTSMOUTH & TRUXTON,0
36.87474,,-76.39982,1818,GATEWAY & TWIN PINES,0
36.86314,,-76.39464,1819,CHURCHLAND & TYRE NECK,0
36.97468,,-76.41699,2802,JEFFERSON & 16TH,0
36.82196,,-76.42084,1609,PORTSMOUTH & CAPRI CIRCLE W (Kmart),0
36.82395,,-76.41165,1608,PORTSMOUTH & TAYLOR,0
37.00577,,-76.436,3229,JEFFERSON & BRIARFIELD,0
37.00381,,-76.43478,3228,JEFFERSON & TEMPLE,0
36.81634,,-76.36285,1601,PORTSMOUTH & MOHAWK,0
36.81437,,-76.35549,1600,MCLEAN & AIRLINE,0
36.81829,,-76.37215,1603,PORTSMOUTH & BYERS,0
37.0001,,-76.43249,3226,JEFFERSON & PENINSULA,0
36.81974,,-76.38043,1605,PORTSMOUTH & ELMHURST,0
36.8188,,-76.37518,1604,PORTSMOUTH & JEWELL,0
36.82152,,-76.39063,1607,PORTSMOUTH & HODGES FERRY,0
36.8209,,-76.38714,1606,PORTSMOUTH & ROBIN,0
36.82653,,-76.2441,0817,INDIAN RIVER & KEMP,0
36.94454,,-76.29624,8859,BELLINGER & FOURTH,0
36.94437,,-76.29939,8858,BELLINGER & THIRD,0
36.85222,,-75.97611,4001,ATLANTIC & 24TH (WAVE),0
36.94813,,-76.30291,8852,FIRST & GILBERT,0
36.94769,,-76.31068,8851,GILBERT & FARRAGUT 2,0
36.9394,,-76.22561,0141,OCEAN VIEW & GROVE,0
36.89409,,-76.23828,0363,CHESAPEAKE & STRAND,0
36.8968,,-76.23871,0362,CHESAPEAKE & PICADILLY (NES),0
37.05602,,-76.40077,2848,HARDY CASH & HAMPTON CLUB,0
37.05631,,-76.39569,2846,HARDY CASH & PEABODY,0
37.0561,,-76.39874,2847,HARDY CASH & EXECUTIVE,0
37.14281,,-76.52355,2844,JEFFERSON & BUCHANAN,0
37.05637,,-76.39231,2845,COLISEUM & CAREPLEX,0
37.04807,,-76.39097,2842,COLISEUM & MARCELLA,0
37.14514,,-76.52529,2843,JEFFERSON & HANOVER,0
37.04013,,-76.38741,2840,COLISEUM & CONVENTION,0
36.81508,,-76.21552,0812,MILITARY & INDIAN RIVER,0
37.13824,,-76.5196,3320,JEFFERSON & DENBIGH,0
37.14303,,-76.52344,3321,JEFFERSON & BUCHANAN,0
37.15002,,-76.52901,3322,JEFFERSON & RICHNECK,0
37.15121,,-76.52993,3323,JEFFERSON & MCMORROW,0
37.15552,,-76.53326,3324,JEFFERSON & GREEN GROVE,0
37.16482,,-76.5406,3325,JEFFERSON & INDUSTRIAL PARK,0
37.16699,,-76.54226,3326,JEFFERSON & SHIELDS,0
37.17183,,-76.54609,3327,JEFFERSON & WOODCREEK,0
37.17568,,-76.56952,3328,WARWICK & DOZIER,0
37.18099,,-76.57,3329,WARWICK & ENTERPRISE,0
36.88889,,-76.24025,0366,CHESAPEAKE & HYDE,0
36.83066,,-76.3127,1775,ELM & SOUTH,0
36.82582,,-76.31243,1774,ELM & RANDOLPH,0
36.82426,,-76.31795,1771,LINCOLN & LANSING,0
36.8242,,-76.31975,1770,LINCOLN & PIEDMONT,0
36.82439,,-76.31352,1773,LINCOLN & CAMDEN,0
36.82431,,-76.31618,1772,LINCOLN & RICHMOND,0
37.04307,,-76.43451,3073,TODDS & TOPPING,0
36.86506,,-76.25098,2998,BALLENTINE & MCLEMORE,0
36.85789,,-76.28441,1159,VIRGINIA BEACH & SALTER,0
37.02566,,-76.31403,2999,MALLORY & SHERWOOD,0
36.85454,,-76.27398,1155,VIRGINIA BEACH & TIDEWATER,0
36.85238,,-76.26731,1154,VIRGINIA BEACH & MARSHALL,0
36.85626,,-76.27865,1157,VIRGINIA BEACH & CHURCH,0
36.85536,,-76.2766,1156,VIRGINIA BEACH & CHAPEL,0
36.85215,,-76.25897,1151,VIRGINIA BEACH & OAKLAWN,0
36.85222,,-76.25741,1150,VIRGINIA BEACH & MAJESTIC,0
36.85214,,-76.26373,1153,VIRGINIA BEACH & COVENANT,0
37.03383,,-76.3538,5519,RIP RAP & THOMAS,0
37.0276,,-76.36225,5518,PEMBROKE & PARKDALE,0
36.96849,,-76.41226,2807,6TH & JEFFERSON,0
36.8196,,-76.25557,5511,BETHEL & BERKLEY,0
36.82101,,-76.25369,5510,BETHEL & HARLING,0
36.81427,,-76.05749,5513,INTERNATIONAL & VOYAGER,0
36.82514,,-76.06705,5515,LYNNHAVEN & SABRE,0
36.79692,,-76.25834,5514,CAMPOSTELLA & DEXTER,0
37.02177,,-76.35285,5517,NEWPORT NEWS & KECOUGHTAN,0
37.02136,,-76.41492,3039,BIG BETHEL & JOYNES,0
36.83136,,-76.30081,1551,COURT & CRAWFORD,0
36.83384,,-76.30071,1550,COUNTY & COURT,0
36.82079,,-76.30156,1553,MADISON & 7TH,0
36.82228,,-76.29721,1552,PORT CENTRE & MADISON,0
36.81138,,-76.31592,1555,GEORGE WASHINGTON & FREDERICK,0
36.814,,-76.31275,1554,GEORGE WASHINGTON & WIRT,0
36.80535,,-76.32105,1557,GEORGE WASHINGTON & HANBURY,0
36.80669,,-76.31994,1556,GEORGE WASHINGTON & GREENWOOD (near side),0
36.80174,,-76.3186,1559,AFTON & DECATUR,0
36.80253,,-76.32116,1558,AFTON & ALYWIN,0
37.03378,,-76.30444,2992,MALLORY & AMBROSE,0
37.03271,,-76.30607,2993,MALLORY & SARGEANT,0
36.84269,,-76.24606,3030,KIMBALL & WILEY 1,0
37.03055,,-76.30936,2995,MALLORY & BERKLEY,0
37.02913,,-76.31132,2996,MALLORY & HENDERSON,0
37.02745,,-76.31282,2997,MALLORY & WILSON,0
37.0362,,-76.30074,2990,MALLORY & WHITAKER,0
36.97249,,-76.41564,2804,JEFFERSON & 12TH 1,0
37.03458,,-76.30323,2991,MALLORY & DARBY,0
36.91788,,-76.19759,0560,LITTLE CREEK & WOODALL,0
37.02132,,-76.39487,3036,BRIARFIELD & PICKETT,0
37.01893,,-76.40168,3037,BRIARFIELD & PARKINSON,0
37.03186,,-76.30736,2994,MALLORY & SHELTON,0
36.77347,,-76.30815,3031,MILITARY & SHELL,0
36.85762,,-76.28956,5605,VIRGINIA BEACH & GRANBY,0
36.85722,,-76.29049,5607,VIRGINIA BEACH & BOUSH,0
36.85766,,-76.28911,5606,VIRGINIA BEACH & GRANBY,0
37.02917,,-76.35648,5601,PEMBROKE & BACK RIVER,0
36.77325,,-76.30844,3032,MILITARY & SHELL,0
37.02474,,-76.39073,3033,BRIARFIELD & WARD,0
36.84755,,-76.28843,5608,CITY HALL & COURT,0
36.79746,,-76.39632,1905,AIRLINE & MAPLEFIELD,0
37.01474,,-76.44178,3291,JEFFERSON & ODUM,0
37.01337,,-76.44093,3292,JEFFERSON & 74TH,0
36.88036,,-76.04385,1399,GREAT NECK & MILLWOOD,0
36.88634,,-76.0492,1398,GREAT NECK & SHOREHAVEN,0
36.88915,,-76.05141,1397,GREAT NECK & FALCON,0
36.89183,,-76.05548,1396,GREAT NECK & RIVER,0
36.89672,,-76.06255,1395,GREAT NECK & THOMAS BISHOP,0
36.91096,,-76.07267,1392,SHORE & EBB TIDE,0
36.91067,,-76.07457,1391,SHORE & SEA SHELL,0
36.91019,,-76.07775,1390,SHORE & STARFISH,0
37.031,,-76.34191,3812,PEMBROKE & WASHINGTON,0
37.03311,,-76.32701,3813,PEMBROKE & MERCURY,0
36.83436,,-76.34069,3810,HIGH & POTAMAC,0
37.01969,,-76.32182,3811,COUNTY & BOOKER,0
37.02071,,-76.32311,3816,COUNTY & FULTON,0
37.01974,,-76.39724,3817,BRIARFIELD & NORTHWOOD,0
37.03923,,-76.29585,3814,MALLORY & POINT COMFORT,0
37.02217,,-76.32555,3815,COUNTY & FRISSELL,0
37.01913,,-76.40051,3818,BRIARFIELD & GLENROCK,0
36.77782,,-76.00352,3819,GENERAL BOOTH & GUNN HALL,0
36.90598,,-76.17605,0868,SHORE & LOUGH,0
36.92836,,-76.19106,0869,SHORE & PLEASANT,0
36.8923,,-76.14,0866,INDEPENDENCE & LAKESIDE,0
36.89687,,-76.13888,0867,PLEASURE HOUSE & THOROUGHGOOD SQ,0
36.83229,,-76.26176,0862,CAMPOSTELLA & CANTON,0
36.83542,,-76.26303,0863,CAMPOSTELLA & ARLINGTON,0
36.82357,,-76.26049,0860,CAMPOSTELLA & BERKLEY,0
36.82827,,-76.26097,0861,CAMPOSTELLA & MELON,0
36.83614,,-76.28583,0514,INDIAN RIVER & STATE,0
36.83466,,-76.28527,0515,STATE & CLIFTON,0
36.83536,,-76.28201,0513,MAIN & INDIAN RIVER,0
36.82994,,-76.28148,0510,LIBERTY & GRAYSON,0
36.83229,,-76.28337,0511,MAIN & BERKLEY,0
36.88951,,-76.23927,0365,CHESAPEAKE & NORVIEW (5 pts),0
36.89235,,-76.16875,1326,NORTHAMPTON & BAYSIDE,0
36.80998,,-76.09918,1425,ROSEMONT & BUNYAN,0
36.82891,,-76.28061,0468,LIBERTY & LANCASTER,0
36.82634,,-76.27811,0469,LIBERTY & SHERMAN,0
36.83488,,-76.28233,0462,MAIN & INDIAN RIVER,0
36.83419,,-76.28265,0463,MAIN & POPLAR,0
36.83428,,-76.28494,0460,STATE & CLIFTON,0
36.836,,-76.28581,0461,STATE & INDIAN RIVER,0
36.83065,,-76.28232,0466,LIBERTY & FAUQUIER,0
36.82988,,-76.28157,0467,LIBERTY & GRAYSON,0
36.8329,,-76.28321,0464,MAIN & BERKLEY,0
36.83225,,-76.28351,0465,MAIN & LIBERTY,0
36.93256,,-76.31822,0242,HAMPTON & GREENBRIER,0
36.93077,,-76.31806,0243,HAMPTON & MAPLESHADE,0
36.93646,,-76.31854,0240,HAMPTON & B,0
36.93365,,-76.31831,0241,HAMPTON & D,0
36.92587,,-76.3175,0246,HAMPTON & HELMICK,0
36.92355,,-76.31645,0247,HAMPTON & NORTH,0
36.92927,,-76.31792,0244,HAMPTON & BEECHWOOD,0
36.92764,,-76.31777,0245,HAMPTON & GLENDALE,0
36.92303,,-76.31605,0248,HAMPTON & BAKER,0
36.9211,,-76.31413,0249,HAMPTON & LEUTZE,0
37.03735,,-76.29871,2183,MALLORY & AL,0
37.02939,,-76.41453,2182,WEAVER & WOODBURY FOREST,0
36.99965,,-76.38435,2181,KECOUGHTAN & PIEDMONT,0
36.98722,,-76.40648,2180,25TH & CHESTNUT,0
37.0401,,-76.29475,2184,MALLORY & PEMBROKE,0
37.02602,,-76.35992,2213,QUEEN & DOGWOOD,0
37.02603,,-76.36134,2212,QUEEN & PATTERSON,0
37.02853,,-76.36301,2211,LASALLE & GEORGIA,0
37.02877,,-76.36687,2210,MICHIGAN & LASALLE,0
37.03037,,-76.34429,2217,PEMBROKE & WINE,0
37.02577,,-76.35351,2216,QUEEN & STEWART,0
36.8624,,-76.23433,0640,AZALEA GARDEN & VILLAGE,0
36.86645,,-76.23498,0641,AZALEA GARDEN & PRINCESS ANNE,0
37.03091,,-76.34121,2219,PEMBROKE & CENTER,0
37.03076,,-76.34208,2218,PEMBROKE & WASHINGTON,0
36.89038,,-76.23851,0648,SEWELLS POINT & CHESAPEAKE,0
36.89518,,-76.2397,0649,SEWELLS POINT & PARTRIDGE,0
36.9179,,-76.26445,0884,LITTLE CREEK & SAN ANTONIO,0
36.91807,,-76.26196,0885,LITTLE CREEK & GALVESTON,0
36.91744,,-76.25881,0886,LITTLE CREEK & DALLAS,0
36.91518,,-76.27676,0880,LITTLE CREEK & CEDAR LEVEL,0
36.91504,,-76.27524,0881,LITTLE CREEK & COLONIAL,0
36.91777,,-76.27086,0882,TAUSSIG & GRANBY,0
36.91756,,-76.27003,0883,TAUSSIG & LITTLE CREEK,0
36.90782,,-76.23914,0888,JOHNSTONS & AUBURN,0
36.90786,,-76.23698,0889,JOHNSTONS & GATE,0
37.0293,,-76.35578,5600,PEMBROKE & BACK RIVER,0
37.01719,,-76.43105,2439,74TH & ORCUTT,0
37.01873,,-76.42939,2438,ROANOKE & 75TH,0
36.79534,,-76.3477,2433,GUST & MARCY,0
37.03527,,-76.39789,2432,QUEEN & WEAVER,0
37.02185,,-76.42205,2431,LASSITER & MARTHA LEE 1,0
37.02075,,-76.42593,2430,76TH & CHESTNUT,0
37.02076,,-76.42616,2437,76TH & CHESTNUT,0
37.02186,,-76.42237,2436,76TH & MARTHA LEE,0
37.01861,,-76.44393,2434,JEFFERSON & MERCURY,0
37.03482,,-76.31952,2974,PEMBROKE & WOODLAND 2,0
36.79292,,-76.36459,9429,ROOSEVELT & VAUGHN,0
36.90687,,-76.16137,0088,SHORE & LAKE SHORES,0
36.90694,,-76.15572,0089,SHORE & JACK FROST,0
36.97959,,-76.40992,2509,WICKHAM & 18TH,0
36.98086,,-76.41071,2508,WICKHAM & 20TH,0
36.9055,,-76.1783,0084,SHORE & DIAMOND SPRINGS,0
36.90569,,-76.17617,0085,SHORE & LOUGH,0
36.90662,,-76.17269,0086,SHORE & LAKE SMITH,0
36.9071,,-76.16955,0087,SHORE & KIMBALL,0
36.92109,,-76.19266,0080,SHORE & DUNNING,0
36.91693,,-76.19121,0081,SHORE & AMPHIBIOUS BASE (Gate 1),0
36.91488,,-76.19123,0082,SHORE & FLOWERFIELD,0
36.91254,,-76.18992,0083,SHORE & HEUTTE,0
37.14522,,-76.54978,2727,WARWICK & CURTIS TIGNOR 1,0
37.14899,,-76.55292,2726,WARWICK & SNIDOW,0
37.15114,,-76.5538,2725,WARWICK & THORNCLIFF,0
37.15418,,-76.55535,2724,WARWICK & WOODHAVEN,0
37.15637,,-76.55622,2723,WARWICK & HICKORY POINT,0
37.15843,,-76.55702,2722,WARWICK & ASHTON GREEN,0
37.15995,,-76.55734,2721,WARWICK & WARWICK LANDING,0
37.16339,,-76.55723,2720,WARWICK & WILLIAMSON,0
37.14076,,-76.54714,2729,WARWICK & BEXLEY PARK,0
37.14342,,-76.54862,2728,WARWICK & CURTIS TIGNOR 2,0
36.90241,,-76.24277,0702,WIDGEON & SEWELLS POINT,0
36.81762,,-76.25203,9199,WINGFIELD & BERKLEY,0
36.81708,,-76.06698,5042,LYNNHAVEN & INTERNATIONAL,0
36.81804,,-76.32113,1807,PORTSMOUTH & ROANOKE,0
36.79038,,-76.33062,1806,GEORGE WASHINGTON & WINTERGREEN,0
36.78784,,-76.33235,1805,GEORGE WASHINGTON & DELWOOD,0
36.81565,,-76.3418,1804,PORTSMOUTH & RODMAN,0
36.77983,,-76.33139,1802,GILMERTON & ALBERT,0
36.77369,,-76.3245,1801,CANAL & MILITARY,0
36.77722,,-76.26949,1800,MILITARY & CANADIAN,0
36.84248,,-76.01727,3788,VIRGINIA BEACH & WEST,0
36.81622,,-76.33168,1809,PORTSMOUTH & DAHLIA (far),0
36.81747,,-76.32378,1808,PORTSMOUTH & COLUMBUS,0
37.10658,,-76.49068,9511,CRISTON & HANCOCK,0
37.10676,,-76.49079,9510,CRISTON & HANCOCK,0
36.85065,,-76.25312,0704,CORPREW & MERRIMAC,0
36.91421,,-76.27274,0038,GRANBY & LITTLE CREEK,0
37.06947,,-76.47186,3258,JEFFERSON & GROOME,0
37.07159,,-76.47315,3259,JEFFERSON & ROBINSON,0
36.94735,,-76.31912,8864,GILBERT & MARYLAND,0
36.95123,,-76.32319,8865,VIRGINIA & DILLINGHAM,0
36.94747,,-76.31655,8863,GILBERT & BACON,0
36.94468,,-76.29279,8860,BELLINGER & TOWWAY,0
36.94826,,-76.30286,8861,GILBERT & FIRST,0
37.05012,,-76.46016,3250,JEFFERSON & LYLISTON,0
37.05167,,-76.46086,3251,JEFFERSON & IVY FARMS,0
37.05316,,-76.46176,3252,JEFFERSON & GAMBOL,0
37.05527,,-76.46307,3253,JEFFERSON & DRESDEN,0
37.05789,,-76.46473,3254,JEFFERSON & TARRYTOWN,0
36.76005,,-76.00545,1526,UPTON & NIMMO,0
37.06403,,-76.46849,3256,JEFFERSON & LANGLEY,0
37.06653,,-76.47005,3257,JEFFERSON & WINSTON,0
36.87904,,-75.98492,1255,ATLANTIC & 52ND,0
37.06165,,-76.4102,2859,BUTLER FARM & LUCAS 2,0
37.06151,,-76.4118,2858,BUTLER FARM & LUCAS 1,0
36.91018,,-76.27447,0036,GRANBY & GRANBY PARK,0
36.83135,,-76.33139,1622,ROMANESQUE & MARKHAM,0
37.06221,,-76.40829,2853,BUTLER FARM & LUCAS 1,0
37.06341,,-76.40224,2852,BUTLER FARM & MAGRUDER,0
37.06154,,-76.4141,2855,BUTLER FARM & OLD MALLORY,0
37.06174,,-76.41132,2854,BUTLER FARM & LUCAS 2,0
37.06151,,-76.41798,2857,BUTLER FARM & OLD MALLORY,0
37.06228,,-76.41917,2856,HASTINGS & GRIFFIN (TNCC-Front),0
36.82317,,-75.97892,1490,GENERAL BOOTH & VA AQUARIUM,0
37.08769,,-76.46732,3332,OMNI & CANON,0
36.80943,,-75.99044,1492,GENERAL BOOTH & BIRDNECK,0
36.79398,,-75.99552,1493,GENERAL BOOTH & OCEANA,0
37.03328,,-76.32523,3337,PEMBROKE & MERCURY,0
36.91497,,-76.24593,3336,LITTLE CREEK & MERRITT,0
37.19158,,-76.57166,3335,WARWICK & RIPLEY,0
37.18617,,-76.57192,3334,WARWICK & CURTIS,0
37.09689,,-76.45356,3203,HARPERSVILLE & BAYBERRY,0
37.12208,,-76.52344,3339,BLAND & CAMPBELL,0
37.04659,,-76.39437,3338,CUNNINGHAM & HARTFORD,0
36.84535,,-76.36878,1700,HIGH & SEAGROVE,0
36.84684,,-76.37161,1701,HIGH & SHIRLEY,0
36.84019,,-76.35581,1702,HIGH & GRAYSON,0
36.8575,,-76.38684,1703,HIGH & DOGWOOD,0
36.85967,,-76.39008,1704,HIGH & BON SECOURS,0
36.84686,,-76.37187,1705,HIGH & SHIRLEY,0
36.85964,,-76.38982,1706,HIGH & BON SECOURS,0
36.85387,,-76.382,1707,HIGH & REESE,0
36.85456,,-76.38276,1708,HIGH & FERGUSON,0
36.85215,,-76.37944,1709,HIGH & CEDAR,0
37.09463,,-76.45892,3200,J CLYDE MORRIS & TRAVERSE,0
36.84389,,-76.14579,1128,VIRGINIA BEACH & ARAGONA,0
36.84411,,-76.15199,1129,VIRGINIA BEACH & DORSET,0
36.84021,,-76.10877,1120,VIRGINIA BEACH & LYNN SHORES,0
36.84113,,-76.11173,1121,VIRGINIA BEACH & KENTUCKY,0
36.84182,,-76.1136,1122,VIRGINIA BEACH & LOEHMANNS,0
36.84283,,-76.11637,1123,VIRGINIA BEACH & STEPNEY,0
36.84349,,-76.12086,1124,VIRGINIA BEACH & THALIA,0
36.84375,,-76.13875,1126,VIRGINIA BEACH & INDEPENDENCE,0
36.84381,,-76.14184,1127,VIRGINIA BEACH & KELLAM,0
36.8641,,-76.25062,2989,BALLENTINE & DANA,0
37.03852,,-76.29722,2988,MALLORY & BAYVIEW,0
36.8418,,-76.25039,3029,KIMBALL & COURT 1,0
36.84325,,-76.24939,3028,KIMBALL & COURT 3,0
37.04424,,-76.30202,2983,OLD BUCKROE & WOOD,0
37.04263,,-76.30312,2982,OLD BUCKROE & BURGESS,0
37.04142,,-76.30393,2981,OLD BUCKROE & RICHARD,0
37.04494,,-76.31241,2980,ANDREWS & REDFORD,0
37.03933,,-76.29599,2987,MALLORY & SEABOARD,0
37.04284,,-76.2935,2986,MALLORY & PEMBROKE,0
37.04343,,-76.29466,2985,BUCKROE & FOURTH,0
37.04509,,-76.30028,2984,BUCKROE & SEABOARD,0
36.96677,,-76.27816,1018,OCEAN VIEW & 10TH VIEW,0
36.96608,,-76.27532,1019,OCEAN VIEW & 9TH VIEW,0
36.96702,,-76.29402,1014,OCEAN VIEW & 15TH VIEW,0
36.96702,,-76.29139,1015,OCEAN VIEW & RALLSTON,0
36.96701,,-76.28145,1017,OCEAN VIEW & 11TH VIEW,0
36.96661,,-76.27631,1010,OCEAN VIEW & 9TH VIEW,0
36.96695,,-76.27787,1011,OCEAN VIEW & 10TH VIEW,0
36.8609,,-76.28792,1234,PRINCESS ANNE & GRANBY,0
36.86203,,-76.29109,1235,PRINCESS ANNE & PENDER,0
36.86359,,-76.29414,1236,PRINCESS ANNE & COLONIAL,0
36.86491,,-76.29693,1237,PRINCESS ANNE & MANTEO,0
36.85771,,-76.27678,1230,PRINCESS ANNE & WIDE,0
36.85837,,-76.27879,1231,PRINCESS ANNE & CHURCH,0
36.8658,,-76.29904,1238,PRINCESS ANNE & COLLEY,0
36.8601,,-76.30044,1239,COLLEY & FAIRFAX,0
36.88028,,-76.3078,5670,ELKHORN & 39TH,0
36.88243,,-76.30792,5671,ELKHORN & 42ND,0
36.8237,,-76.15274,5672,PRINCESS ANNE & BAXTER,0
36.81251,,-76.21701,5674,MILITARY & PROVIDENCE,0
36.79821,,-76.2337,5676,MILITARY & OLD GREENBRIER,0
36.75125,,-76.24647,5677,BATTLEFIELD & KNELLS RIDGE,0
36.78894,,-76.33179,5678,GEORGE WASHINGTON & FERNDALE,0
36.78138,,-76.34352,5679,CAMELOT & DEEP CREEK,0
37.01343,,-76.4172,2487,BRIARFIELD & POTOMAC,0
36.99436,,-76.39677,W0001,27TH & PINE,0
37.01323,,-76.4406,3809,JEFFERSON & 74TH,0
36.9919,,-76.42742,3808,JEFFERSON & 41ST,0
36.87217,,-76.27482,3804,26TH & WAVERLY,0
36.83464,,-76.3283,3806,HIGH & NEWPORT,0
36.95318,,-76.25661,3801,FIRST VIEW & D VIEW,0
36.9493,,-76.26105,3803,FIRST VIEW & MAPLE,0
36.95071,,-76.25907,3802,FIRST VIEW & CHERRY,0
36.91545,,-76.27937,0879,LITTLE CREEK & NEWPORT,0
36.91562,,-76.28102,0878,LITTLE CREEK & SHERYL,0
36.91587,,-76.30455,0870,LITTLE CREEK & SHIRLAND,0
36.91606,,-76.29619,0873,LITTLE CREEK & TAPLEY,0
36.91605,,-76.29775,0872,LITTLE CREEK & ENFIELD,0
36.9161,,-76.29357,0874,LITTLE CREEK & DIVEN,0
36.91605,,-76.28526,0877,LITTLE CREEK & RUTHVEN,0
36.91616,,-76.29057,0876,LITTLE CREEK & ARMFIELD,0
36.82745,,-76.27898,0509,LIBERTY & CRAIG,0
36.82589,,-76.27765,0508,LIBERTY & SHERMAN,0
36.77496,,-76.00687,5708,GENERAL BOOTH & CORPORATE LANDING,0
36.8545,,-76.23892,0636,VIRGINIA BEACH & INGLESIDE,0
36.81153,,-76.26464,0501,ATLANTIC & CULPEPPER,0
36.80951,,-76.26423,0500,ATLANTIC & POCAHONTAS,0
36.81771,,-76.26706,0503,LIBERTY & FITCHETT,0
36.81576,,-76.26553,0502,ATLANTIC & JEFFERSON,0
36.81996,,-76.27185,0505,LIBERTY & POINDEXTER,0
36.81882,,-76.26975,0504,LIBERTY & COMMERCE,0
36.82412,,-76.27615,0507,LIBERTY & SEABOARD,0
36.82254,,-76.27457,0506,LIBERTY & 20TH,0
36.94317,,-76.23385,0145,OCEAN VIEW & BEACH VIEW 1,0
37.0513,,-76.30048,2948,ANDREWS & OLD BUCKROE,0
36.95013,,-76.24614,0149,OCEAN VIEW & NORFOLK,0
36.94921,,-76.24322,0148,OCEAN VIEW & CHESAPEAKE BLVD,0
36.81493,,-76.26548,0475,OLD ATLANTIC & JEFFERSON,0
36.81819,,-76.26862,0474,LIBERTY & HOOVER,0
36.80736,,-76.26402,0477,ATLANTIC & MYERS,0
36.81169,,-76.26487,0476,ATLANTIC & CULPEPPER,0
36.82262,,-76.2748,0471,LIBERTY & 20TH,0
36.82544,,-76.27745,0470,LIBERTY & HALIFAX,0
36.81996,,-76.27129,0473,SEABOARD & LIBERTY,0
36.82217,,-76.27241,0472,20TH & SEABOARD,0
36.79918,,-76.25815,0479,BROAD & CAMPOSTELLA,0
36.80463,,-76.26347,0478,ATLANTIC & STRAWBERRY,0
36.85709,,-76.23259,0639,AZALEA GARDEN & VIRGINIA BEACH,0
36.89458,,-76.30343,0259,HAMPTON & ROCKBRIDGE,0
36.8965,,-76.30307,0258,HAMPTON & SURREY,0
36.90978,,-76.30587,0255,HAMPTON & HELENA,0
36.91087,,-76.30597,0254,HAMPTON & NORTH SHORE,0
36.8991,,-76.30322,0257,HAMPTON & MANCHESTER,0
36.90052,,-76.30368,0256,HAMPTON & LEXAN,0
36.91816,,-76.31094,0251,HAMPTON & TERMINAL,0
36.91917,,-76.31201,0250,HAMPTON & STAFF COLLEGE,0
36.9141,,-76.30698,0253,HAMPTON & RUNNYMEDE,0
36.91574,,-76.30832,0252,HAMPTON & LITTLE CREEK,0
36.87679,,-76.25161,0373,CHESAPEAKE & CROMWELL (before RR),0
37.04926,,-76.30618,2945,ANDREWS & NEWTON,0
36.89892,,-76.24223,0651,SEWELLS POINT & PHILPOTTS,0
36.89699,,-76.24105,0650,SEWELLS POINT & QUAIL,0
36.89902,,-76.24615,0653,PHILPOTTS & PARTRIDGE,0
36.89903,,-76.2436,0652,PHILPOTTS & PALEM,0
36.89854,,-76.2519,0655,PHILPOTTS & GLENOAK,0
36.89876,,-76.24888,0654,PHILPOTTS & PIERCE,0
36.9023,,-76.25054,0657,WIDGEON & PUGH,0
36.90187,,-76.25455,0656,WIDGEON & WHITEHORN,0
36.90237,,-76.24494,0659,WIDGEON & MINNIE,0
36.90233,,-76.24745,0658,WIDGEON & THAXTON,0
37.03126,,-76.32485,2224,MERCURY & OLD POINT,0
37.02972,,-76.32433,2225,MERCURY & HALIFAX,0
37.03302,,-76.33142,2222,PEMBROKE & JUNIPER,0
37.03305,,-76.32983,2223,PEMBROKE & CYPRESS,0
37.03131,,-76.33917,2220,PEMBROKE & RIVER,0
37.03296,,-76.33376,2221,PEMBROKE & HOLLY,0
36.89422,,-76.22318,0897,MILITARY & NORVIEW,0
36.8961,,-76.22457,0896,MILITARY & MCGEE,0
36.89811,,-76.22601,0895,MILITARY & MEADOW LAKE,0
36.89991,,-76.22735,0894,MILITARY & PICADILLY,0
36.90149,,-76.22851,0893,MILITARY & LONGDALE,0
36.90451,,-76.23071,0892,MILITARY & SPRINGMEADOW,0
36.90645,,-76.23213,0891,MILITARY & JOHNSTONS,0
36.90853,,-76.23502,0890,JOHNSTONS & MILITARY,0
37.0457,,-76.31049,2944,AMHERST & ANDREWS,0
36.89026,,-76.22031,0899,MILITARY & AZALEA GARDEN,0
36.89283,,-76.22217,0898,MILITARY & NORVELLA,0
36.81786,,-76.21662,0765,INDIAN RIVER & LELAND,0
37.02093,,-76.44175,2088,MERCURY & NEWMARKET NORTH,0
37.01455,,-76.44848,2089,WARWICK & 75TH,0
37.0214,,-76.4316,2082,79TH & ROANOKE,0
37.02074,,-76.43324,2083,79TH & ORCUTT,0
37.02351,,-76.42631,2080,79TH & MERRIMAC,0
37.02309,,-76.42736,2081,79TH & CHESTNUT,0
36.95509,,-76.25456,2086,1ST VIEW & PORTVIEW,0
36.94504,,-76.2705,2084,1ST VIEW & BAY,0
36.9482,,-76.26332,2085,1ST VIEW & SAINT GEORGE,0
36.80438,,-76.32159,3342,GEORGE WASHINGTON & PARKSIDE,0
36.9856,,-76.3943,2538,BLAIR & ASH,0
36.9844,,-76.39573,2539,BLAIR & MULBERRY,0
36.87432,,-76.13472,0099,INDEPENDENCE & HAYGOOD,0
36.87979,,-76.13333,0098,INDEPENDENCE & PAUL REVERE,0
36.88418,,-76.13474,0097,INDEPENDENCE & EWELL,0
36.89443,,-76.14196,0096,PLEASURE HOUSE & INDEPENDENCE,0
36.89783,,-76.13823,0095,PLEASURE HOUSE & FIRST COURT,0
36.90179,,-76.1366,0094,PLEASURE HOUSE & VICTORY,0
36.90454,,-76.13768,0093,SHORE & OLIVER (far),0
36.90539,,-76.14391,0092,SHORE & WELLINGS,0
36.90608,,-76.14915,0091,SHORE & INDEPENDENCE,0
36.98981,,-76.39275,2535,MAPLE & 19TH,0
37.15834,,-76.55662,2712,WARWICK & ASHTON GREEN,0
37.16047,,-76.55695,2713,WARWICK & WARWICK LANDING,0
37.1543,,-76.55501,2710,WARWICK & WOODHAVEN,0
37.15576,,-76.55558,2711,WARWICK & STAFFORD,0
37.16049,,-76.58025,2716,FORT EUSTIS,0
37.16321,,-76.55685,2714,WARWICK & WILLIAMSON,0
37.1692,,-76.56283,2715,WARWICK & LEES MILL,0
36.8483,,-76.18654,3346,NORTH CENTER & KEMPSVILLE,0
37.16838,,-76.56216,2719,WARWICK & LEES MILL,0
36.79324,,-76.1188,3347,PRINCESS ANNE & LYNNHAVEN,0
36.94376,,-76.31827,5079,TAUSSIG & HAMPTON,0
36.87268,,-76.22029,1197,PRINCESS ANNE & DARDEN,0
36.81781,,-76.27487,1832,POINDEXTER & RODGERS,0
36.81662,,-76.27703,1833,POINDEXTER & STEWART,0
36.81903,,-76.2727,1830,POINDEXTER & B,0
36.8184,,-76.27373,1831,POINDEXTER & JACKSON,0
36.80977,,-76.27765,1836,BAINBRIDGE & HOLLY,0
36.8089,,-76.27745,1837,BAINBRIDGE & BYRD,0
36.81457,,-76.27863,1834,BAINBRIDGE & OHIO,0
36.81361,,-76.27844,1835,BAINBRIDGE & JEFFERSON,0
36.841,,-76.13128,3795,CONSTITUTION & COLUMBUS,0
36.83465,,-76.33236,3794,HIGH & CUTHERELL,0
36.8077,,-76.27715,1838,BAINBRIDGE & LESTER,0
36.80612,,-76.27669,1839,BAINBRIDGE & HUGHES,0
36.86005,,-76.27209,3791,TIDEWATER & GOOCHLAND,0
36.84272,,-76.02262,3790,VIRGINIA BEACH & FIRST COLONIAL,0
36.8347,,-76.3303,3793,HIGH & VIRGINIA,0
36.87308,,-76.40209,3792,TOWNE POINT & PEPPERWOOD,0
37.00766,,-76.36821,2154,KECOUGHTAN & ALLEGHANY,0
37.00738,,-76.36985,2155,KECOUGHTAN & HAMPTON ROADS,0
36.98937,,-76.41112,2404,30TH & ROANOKE,0
37.00492,,-76.3745,2157,KECOUGHTAN & LITTLE FARMS,0
37.00835,,-76.3595,2150,KECOUGHTAN & LASALLE,0
37.00816,,-76.36161,2151,KECOUGHTAN & EAST,0
37.00807,,-76.36287,2152,KECOUGHTAN & CHEROKEE,0
37.00782,,-76.36612,2153,KECOUGHTAN & ALGONQUIN,0
37.00386,,-76.37652,2158,KECOUGHTAN & POWHATAN,0
37.00228,,-76.37952,2159,KECOUGHTAN & WYTHE,0
36.99389,,-76.41373,2408,ROANOKE & 37TH,0
36.99642,,-76.41527,2409,ROANOKE & 41ST,0
37.06328,,-76.42726,3065,BIG BETHEL & TOWN CENTER,0
36.83026,,-76.25394,0761,INDIAN RIVER & FORD,0
36.84792,,-76.13692,0105,INDEPENDENCE & JEANNE,0
36.94114,,-76.32541,8871,SECOND & ESCORT,0
36.93841,,-76.32516,8870,SECOND & A,0
37.04809,,-76.45986,3249,JEFFERSON & COLBERTS,0
37.04659,,-76.45964,3248,JEFFERSON & HEMLOCK,0
36.94566,,-76.28054,8875,5TH & PARK,0
36.94643,,-76.28071,8874,5TH & A,0
36.94723,,-76.27827,8877,A & PARK,0
36.94738,,-76.27737,8876,A & PARK,0
36.83683,,-76.34943,3243,HIGH & WILLETT,0
37.03526,,-76.45417,3242,JEFFERSON & WARWICKSHIRE,0
37.03276,,-76.45263,3241,JEFFERSON & BELLWOOD,0
37.03015,,-76.45102,3240,JEFFERSON & WOODFIN,0
37.04429,,-76.45932,3247,JEFFERSON & MCLAWHORNE,0
37.04105,,-76.45777,3246,JEFFERSON & FRANCISCO,0
37.03925,,-76.45665,3245,JEFFERSON & LEE,0
37.03801,,-76.45587,3244,JEFFERSON & VILLAGE,0
36.829,,-75.97361,1483,GENERAL BOOTH & RUDEE POINT,0
36.81084,,-75.98967,1481,GENERAL BOOTH & BIRDNECK,0
36.86192,,-75.98,1487,PACIFIC & 34TH,0
36.85612,,-75.97847,1486,PACIFIC & 28TH,0
36.85307,,-75.97764,1485,PACIFIC & 25TH,0
36.85762,,-76.30382,3309,COLLEY & SOUTHAMPTON,0
36.83701,,-76.21211,3306,CORPORATE & MILITARY,0
36.83969,,-76.21357,3307,CORPORATE & ORION,0
36.82923,,-75.97365,1489,GENERAL BOOTH & HARBOUR,0
36.86389,,-75.98056,1488,PACIFIC & 36TH,0
36.99365,,-76.42873,3302,JEFFERSON & 44TH,0
36.99223,,-76.42787,3303,JEFFERSON & 42ND,0
36.99584,,-76.4301,3300,JEFFERSON & 48TH,0
36.99471,,-76.42939,3301,JEFFERSON & 46TH,0
36.8343,,-76.3434,1713,HIGH & LOUDOUN,0
36.99761,,-76.41877,2411,44TH & ORCUTT,0
36.83924,,-76.35367,1711,HIGH & ORANGE,0
36.85189,,-76.37928,1710,HIGH & STERLING POINT,0
36.83521,,-76.3088,1717,HIGH & CHESTNUT,0
36.83531,,-76.30437,1716,HIGH & WASHINGTON,0
36.83537,,-76.30117,1715,HIGH & COURT,0
36.99836,,-76.41648,2410,ROANOKE & 44TH,0
37.01445,,-76.35303,2145,KECOUGHTAN & EARL,0
36.9956,,-76.41789,2412,ORCUTT & 41ST,0
36.99676,,-76.42377,2415,MARSHALL & 44TH (New. Pk. ES),0
36.99402,,-76.42181,2414,41ST & MARSHALL,0
36.85536,,-76.19491,1139,VIRGINIA BEACH & KEMPSVILLE,0
36.85513,,-76.18854,1138,VIRGINIA BEACH & LAND,0
37.02189,,-76.35256,2141,KECOUGHTAN & NEWPORT NEWS,0
36.84902,,-76.16424,1133,VIRGINIA BEACH & CLEARFIELD,0
36.84767,,-76.16091,1132,VIRGINIA BEACH & NORTHRIDGE,0
36.84576,,-76.15621,1131,VIRGINIA BEACH & WITCHDUCK,0
36.84485,,-76.15395,1130,VIRGINIA BEACH & SOUTHGATE,0
36.85482,,-76.1812,1137,VIRGINIA BEACH & REEL,0
36.85438,,-76.17754,1136,VIRGINIA BEACH & FAIR MEADOWS,0
36.85205,,-76.17169,1135,VIRGINIA BEACH & DAVIS,0
36.85053,,-76.16795,1134,VIRGINIA BEACH & WEXFORD,0
37.03848,,-76.38188,2060,SAVILLE & PINE CHAPEL,0
37.04037,,-76.38289,2061,SAVILLE & MERCURY,0
36.95494,,-76.25486,2062,1ST VIEW & A VIEW,0
37.04483,,-76.38988,2063,COLISEUM & CUNNINGHAM,0
37.0272,,-76.36297,3012,LASALLE & PEMBROKE,0
37.04684,,-76.39251,2064,CUNNINGHAM & COLISEUM,0
37.05017,,-76.34759,3010,KING & GILBERT,0
37.02772,,-76.34764,3011,LINCOLN & FRANKLIN,0
36.76465,,-76.25175,3017,BATTLEFIELD & VOLVO,0
36.9479,,-76.26425,2065,1ST VIEW & SAINT GEORGE,0
36.94513,,-76.27056,2066,1ST VIEW & BAY,0
36.96402,,-76.26801,1009,OCEAN VIEW & 7TH VIEW,0
36.96293,,-76.26577,1008,OCEAN VIEW & 6TH VIEW,0
36.96111,,-76.26295,1007,OCEAN VIEW & 5TH VIEW,0
36.8732,,-76.25289,1004,BALLENTINE & HANBURY,0
36.87129,,-76.25243,1003,BALLENTINE & PETERSON,0
36.86953,,-76.252,1002,BALLENTINE & DAVIS,0
36.86767,,-76.25152,1001,BALLENTINE & TAIT,0
36.86257,,-76.25025,1000,BALLENTINE & TARRANT,0
36.85548,,-76.27011,1227,PRINCESS ANNE & COURTNEY,0
36.85491,,-76.26828,1226,PRINCESS ANNE & MALTBY,0
36.85439,,-76.26663,1225,PRINCESS ANNE & MARSHALL,0
36.854,,-76.26395,1224,PRINCESS ANNE & PARK,0
36.85447,,-76.26135,1223,PRINCESS ANNE & RAINEY,0
36.85576,,-76.25648,1222,PRINCESS ANNE & GRAND BASSA,0
36.85707,,-76.25426,1221,PRINCESS ANNE & MERRIMAC,0
36.85827,,-76.25235,1220,PRINCESS ANNE & GODFREY,0
36.85707,,-76.27494,1229,PRINCESS ANNE & CHAPEL,0
36.85645,,-76.27306,1228,PRINCESS ANNE & TIDEWATER,0
36.84619,,-76.25319,8008,BALLENTINE,0
36.88185,,-76.308,5669,ELKHORN & 41ST,0
36.88017,,-76.30792,5668,ELKHORN & 39TH,0
37.05299,,-76.39236,2882,COLISEUM & SIGNATURE,0
37.04071,,-76.38802,2883,COLISEUM & CONVENTION,0
37.0562,,-76.3959,2880,HARDY CASH & PEABODY,0
37.05542,,-76.3926,2881,COLISEUM & HARDY CASH,0
37.02991,,-76.36294,2886,LASALLE & MICHIGAN,0
37.02477,,-76.36272,2887,SETTLERS LANDING & LASALLE,0
37.03879,,-76.38676,2884,COLISEUM & PINE CHAPEL,0
37.03785,,-76.38477,2885,PINE CHAPEL & COLISEUM,0
37.02445,,-76.35662,2888,SETTLERS LANDING & BACK RIVER,0
37.02434,,-76.3536,2889,SETTLERS LANDING & STEWART,0
36.91524,,-76.2544,0583,TIDEWATER & LITTLE CREEK,0
36.90309,,-76.25667,0585,TIDEWATER & THOLE,0
36.90978,,-76.25626,0584,TIDEWATER & BILTMORE,0
36.88892,,-76.22052,3879,AZALEA GARDEN & MILITARY,0
36.89476,,-76.2572,0587,TIDEWATER & WAUKESHA,0
36.85775,,-76.2882,3870,GRANBY & VIRGINIA BEACH,0
36.90094,,-76.2564,0586,TIDEWATER & WIDGEON,0
36.91603,,-76.30696,3874,LITTLE CREEK & HAMPTON,0
36.79947,,-76.39314,1920,AIRLINE & AHOY,0
36.78534,,-75.99987,5719,GENERAL BOOTH & DAM NECK,0
36.79765,,-76.39622,1921,AIRLINE & HOLLEY COVE,0
36.82323,,-75.97835,5716,GENERAL BOOTH & HEADQUARTERS,0
36.78612,,-76.10629,5715,COMMUNITY COLLEGE & PRINCESS ANNE,0
37.08793,,-76.48033,5714,FISHING POINT & GUM ROCK,0
37.0625,,-76.48503,5713,BOULEVARD PARK TRANSFER AREA,0
37.07586,,-76.35889,5712,SWEENEY & CHERRY,0
36.87145,,-76.21093,0940,MILITARY & LEWIS,0
36.79654,,-76.39788,1923,AIRLINE & BROOKESHIRE,0
36.83549,,-76.29686,F002,FERRY STOP - HIGH ST,0
36.83916,,-76.29678,F003,FERRY STOP - NORTH LANDING,0
37.05467,,-76.33064,2959,FOX HILL & SYMS,0
36.84403,,-76.28941,F001,FERRY STOP - WATERSIDE,0
36.79957,,-76.39277,1924,AIRLINE & AHOY,0
37.05793,,-76.46511,3273,JEFFERSON & TARRYTOWN,0
36.8135,,-75.98859,3905,GENERAL BOOTH & OCEAN BREEZE,0
36.76505,,-76.01501,3906,GENERAL BOOTH & MCCOMAS,0
36.81108,,-76.25656,3907,CAMPOSTELLA & GIDEON,0
36.9532,,-76.32754,3900,DECATUR & HULL,0
36.77143,,-76.01115,3901,GENERAL BOOTH & REDMILL,0
36.76812,,-76.01338,3902,GENERAL BOOTH & LONDON BRIDGE,0
36.79741,,-75.99404,3903,GENERAL BOOTH & PROSPERITY,0
36.8087,,-76.37005,1927,AIRLINE & CITY PARK,0
36.80985,,-76.25618,3908,CAMPOSTELLA & SUNRISE,0
36.75735,,-76.28446,3909,LIBERTYVILLE & WINDWARD,0
36.79714,,-76.36794,3112,HORNE & STAUFFER,0
36.78564,,-76.09689,0790,MICHAEL LA BOUVE & FACULTY,0
36.78498,,-76.09627,0791,FACULTY & MICHAEL LA BOUVE,0
36.78952,,-76.10772,0792,BUCKNER & RICA,0
36.79611,,-76.1154,0793,LYNNHAVEN & LONGWOOD,0
36.79521,,-76.11727,0794,LYNNHAVEN & DAHLIA,0
36.79347,,-76.11903,0795,LYNNHAVEN & PRINCESS ANNE,0
36.78916,,-76.12871,0796,LYNNHAVEN & PISSARRO,0
36.78859,,-76.13524,0797,LYNNHAVEN & ROUNDHILL,0
36.78754,,-76.14608,0798,LYNNHAVEN & QUARTER,0
36.78648,,-76.15163,0799,LYNNHAVEN & PLEASANT VALLEY,0
36.84552,,-76.2873,0400,MAIN & SAINT PAULS,0
36.84561,,-76.28721,0401,MAIN & SAINT PAULS,0
36.85849,,-76.27294,0403,GOFF & TIDEWATER,0
36.85135,,-76.28505,0404,SAINT PAULS & WOOD,0
36.854,,-76.27973,0406,CHURCH & OLNEY,0
36.856,,-76.27928,0407,CHURCH & VIRGINIA BEACH,0
36.85676,,-76.2752,0408,CHAPEL & PRINCESS ANNE,0
36.85713,,-76.27318,0409,TIDEWATER & PRINCESS ANNE,0
36.77574,,-76.09149,1510,PRINCESS ANNE & DAM NECK,0
36.8765,,-76.21064,0942,MILITARY & ELIZABETH,0
36.8225,,-76.30207,5807,7TH & JEFFERSON,0
36.91013,,-76.30561,0228,HAMPTON & HELENA,0
36.9155,,-76.30777,0229,HAMPTON & LITTLE CREEK,0
36.88586,,-76.30242,0220,HAMPTON & 46TH,0
36.88723,,-76.30252,0221,HAMPTON & 48TH,0
36.8912,,-76.3039,0222,HAMPTON & BOLLING,0
36.89441,,-76.30325,0223,HAMPTON & ROCKBRIDGE,0
36.89547,,-76.30293,0224,HAMPTON & MAGNOLIA,0
36.89681,,-76.30285,0225,HAMPTON & SURRY,0
36.8997,,-76.30312,0226,HAMPTON & BEDFORD,0
36.90195,,-76.30381,0227,HAMPTON & ESCADRILLE,0
37.04037,,-76.4076,2239,TODDS & LYNNHAVEN,0
37.03621,,-76.31737,2238,PEMBROKE & OAKCREST,0
37.01596,,-76.33285,2231,BLACK & MCCLELLAN (VA),0
37.02124,,-76.31854,2230,MALLORY & MERCURY,0
36.8003,,-76.36672,2233,GREENWOOD & SUNRISE,0
37.01936,,-76.32133,2232,MALLORY & COUNTY,0
37.0179,,-76.33233,2235,MCCLELLAN & HARRIS,0
36.79291,,-76.35588,2234,ROOSEVELT & STRATFORD,0
36.79615,,-76.33471,2237,VICTORY & DEEP CREEK,0
37.02256,,-76.33078,2236,EMANCIPATION & MARSHALL,0
36.91511,,-76.24141,0318,CHESAPEAKE & LITTLE CREEK,0
36.91778,,-76.24182,0319,CHESAPEAKE & ELK,0
36.9697,,-76.41389,2806,JEFFERSON & 6TH,0
36.90882,,-76.24038,0314,CHESAPEAKE & AVENUE E,0
36.91124,,-76.24081,0315,CHESAPEAKE & ROSEFIELD,0
36.91226,,-76.24098,0316,CHESAPEAKE & AVE I,0
36.91418,,-76.24352,0317,EVELYN BUTTS & AVENUE J,0
36.89149,,-76.23763,0310,CHESAPEAKE & GREEN,0
36.8938,,-76.23799,0311,CHESAPEAKE & STRAND,0
36.89977,,-76.23896,0312,CHESAPEAKE & DUNDALE,0
36.90524,,-76.2398,0313,CHESAPEAKE & I-64,0
36.93257,,-76.20308,0135,OCEAN VIEW & 12TH BAY,0
36.93316,,-76.20535,0136,OCEAN VIEW & 10TH BAY,0
36.93357,,-76.20696,0137,OCEAN VIEW & 9TH BAY,0
36.92349,,-76.19183,0130,SHORE & HARBOR WALK,0
36.93106,,-76.19619,0132,OCEAN VIEW & 18TH BAY,0
36.93148,,-76.19866,0133,OCEAN VIEW & 16TH BAY,0
36.88215,,-76.22485,0947,AZALEA GARDEN & BEAMON,0
36.93444,,-76.21035,0138,OCEAN VIEW & 6TH BAY,0
36.93654,,-76.21714,0139,OCEAN VIEW & 1ST BAY (mdblk),0
37.02722,,-76.34208,2091,EATON & MILL POINT,0
37.01252,,-76.44789,2090,73RD & WARWICK,0
36.98972,,-76.40108,2092,PARISH & 26TH,0
36.9842,,-76.39579,2525,BLAIR & MULBERRY,0
36.98505,,-76.3983,2524,HAMPTON & 19TH,0
36.98658,,-76.39297,2527,BLAIR & BUXTON,0
36.98599,,-76.39367,2526,BLAIR & CEDAR,0
36.9836,,-76.40737,2521,ROANOKE & HAMPTON,0
36.9823,,-76.40658,2520,ROANOKE & 20TH,0
36.98573,,-76.40216,2523,HAMPTON & OAK,0
36.98464,,-76.40489,2522,HAMPTON & CHESTNUT,0
36.98976,,-76.39251,2529,MAPLE & 19TH,0
36.98878,,-76.39118,2528,MAPLE & BLAIR,0
36.97773,,-76.40268,2514,ROANOKE & GARDEN 2,0
37.1514,,-76.55354,2709,WARWICK & THORNCLIFF,0
37.14886,,-76.55251,2708,WARWICK & ATKINSON,0
36.88924,,-76.23826,0647,SEWELLS POINT & NORVIEW,0
37.14067,,-76.54671,2705,WARWICK & PAULS PARK,0
37.13715,,-76.54548,2704,WARWICK & BEECHMONT,0
37.14524,,-76.5494,2707,WARWICK & CURTIS TIGNOR 2,0
37.14335,,-76.5482,2706,WARWICK & CURTIS TIGNOR 1,0
37.13012,,-76.53815,2701,WARWICK & ORIANA 1,0
37.13101,,-76.53334,2700,DENBIGH & ORIANA,0
37.13335,,-76.54305,2703,WARWICK & OLD COURTHOUSE,0
37.13116,,-76.53955,2702,WARWICK & ORIANA 2,0
36.87869,,-76.23329,0645,SEWELLS POINT & LITTLE JOHN,0
36.86891,,-76.23343,0642,AZALEA GARDEN & EARLY,0
36.87363,,-76.23245,0643,SEWELLS POINT & LARKIN,0
36.87403,,-76.4125,1828,TOWNE POINT & YAUPON,0
36.87299,,-76.40218,1825,TOWNE POINT & PEPPERWOOD,0
36.87406,,-76.40557,1824,TOWNE POINT & PINEBARK,0
36.86531,,-76.399,1827,CHURCHLAND & TOWNPOINT,0
36.86679,,-76.40015,1826,TOWNE POINT & DUNKIRK,0
36.86695,,-76.40008,1820,TOWNE POINT & DUNKIRK,0
36.8738,,-76.40926,1823,TOWNE POINT & MAGNOLIA,0
37.01058,,-76.35338,2147,KECOUGHTAN & CLYDE,0
37.01324,,-76.35307,2146,KECOUGHTAN & IVY HOME,0
36.99479,,-76.41957,2413,41ST & NEWSOME,0
37.01644,,-76.35298,2144,KECOUGHTAN & SUNSET,0
37.01924,,-76.3527,2143,KECOUGHTAN & COLUMBIA,0
37.02036,,-76.35266,2142,KECOUGHTAN & VICTORIA,0
37.00109,,-76.42641,2417,MARSHALL & NANSEMOND 1,0
36.85335,,-76.24832,2140,BALLENTINE & VIRGINIA BEACH,0
37.00347,,-76.42788,2419,MARSHALL & GLOUCESTER,0
37.00231,,-76.42716,2418,MARSHALL & NANSEMOND 2,0
36.99944,,-76.40402,2365,SHELL & GREENLAWN,0
37.0093,,-76.35631,2149,KECOUGHTAN & REGENT,0
37.00971,,-76.35489,2148,KECOUGHTAN & ARMSTRONG,0
37.05172,,-76.46125,3276,JEFFERSON & IVY FARMS,0
37.05027,,-76.46055,3277,JEFFERSON & BELMONT,0
36.79294,,-76.40208,1922,SUNKIST & AIRLINE,0
37.05313,,-76.46213,3275,JEFFERSON & GAMBOL,0
37.05844,,-76.46541,3272,JEFFERSON & HARPERSVILLE,0
36.80564,,-76.38017,1925,AIRLINE & ELMHURST,0
36.80661,,-76.37688,1926,AIRLINE & LANCER,0
37.06147,,-76.46727,3271,JEFFERSON & NEWPORT,0
36.81116,,-76.36315,1928,AIRLINE & HYMAN,0
37.04824,,-76.46022,3278,JEFFERSON & COLBERTS,0
37.04677,,-76.46002,3279,JEFFERSON & HEMLOCK,0
36.94793,,-76.27519,8880,SEVENTH &  A,0
37.13503,,-76.51706,3319,JEFFERSON & TURNBERRY,0
37.12346,,-76.51276,3318,CHATHAM & HABERSHAM,0
36.77831,,-76.32903,9002,GILMERTON & LAKE VILLAGE,0
36.82055,,-76.22571,0764,INDIAN RIVER & SPARROW,0
36.81842,,-76.25685,3311,BETHEL & CAYCE,0
36.81952,,-76.25134,3310,MAYON & WINGFIELD,0
36.81314,,-76.25895,3313,SHELTER & BETHEL,0
36.81833,,-76.25679,3312,BETHEL & DRAYTON,0
36.81602,,-76.25125,3315,BORDER & WINDY,0
36.8159,,-76.25039,3314,BORDER & WINDY,0
37.12031,,-76.50815,3317,HABERSHAM & WALMART,0
36.81536,,-76.21578,0766,MILITARY & INDIAN RIVER,0
36.82439,,-76.31683,1729,LINCOLN & CHARLESTON,0
36.82752,,-76.31265,1726,ELM & DUKE,0
36.82448,,-76.3133,1727,LINCOLN & CAMDEN,0
36.83085,,-76.31283,1725,ELM & SOUTH,0
36.82475,,-76.30387,9399,LINCOLN & 7TH,0
36.82542,,-76.26832,0760,WILSON & BERKLEY,0
36.9422,,-76.25625,0983,TIDEWATER & LEICESTER,0
36.8222,,-76.23152,0763,INDIAN RIVER & HAZEL,0
36.82438,,-76.23945,0762,INDIAN RIVER & SAINT LAWRENCE,0
36.84737,,-76.18381,0633,CENTER & NEWTOWN,0
37.0276,,-76.34733,3004,LINCOLN & FRANKLIN,0
37.04327,,-76.30784,3007,AMHERST & LANSING,0
37.10576,,-76.50118,3006,OYSTER POINT & OPERATIONS,0
37.02194,,-76.3175,3001,MALLORY & CUMMINGS,0
37.02423,,-76.31504,3000,MALLORY & CHAMBERLIN,0
37.02743,,-76.3496,3003,ARMISTEAD & LINCOLN,0
37.02556,,-76.33309,3002,SETTLERS LANDING & HAMPTON HARBOR,0
36.98002,,-76.41676,2553,HAMPTON & MADISON,0
37.05409,,-76.34633,3009,LITTLE BACK RIVER & RIVERCHASE,0
36.94836,,-76.24195,3008,OCEAN VIEW & ELNORA,0
36.81001,,-76.35141,1588,CAVALIER & MCLEAN,0
36.81842,,-76.31925,1589,PORTSMOUTH & PIEDMONT,0
36.80648,,-76.31996,1582,GEORGE WASHINGTON & GREENWOOD,0
36.81117,,-76.31597,1583,GEORGE WASHINGTON & FREDERICK,0
36.79874,,-76.32506,1580,GEORGE WASHINGTON & GARRETT,0
36.83532,,-76.29805,1587,HIGH & CRAWFORD,0
36.81458,,-76.31148,1584,GEORGE WASHINGTON & ELM,0
36.8559,,-76.21722,1038,VIRGINIA BEACH & ROUND BAY,0
36.8558,,-76.21451,1039,VIRGINIA BEACH & BRIAR HILL,0
36.85248,,-76.25057,1032,VIRGINIA BEACH & GODFREY,0
36.85285,,-76.24856,1033,VIRGINIA BEACH & BALLENTINE,0
36.8522,,-76.25533,1030,VIRGINIA BEACH & NORCHESTER,0
36.85224,,-76.25363,1031,VIRGINIA BEACH & MERRIMAC,0
36.85618,,-76.22479,1036,VIRGINIA BEACH & JETT,0
36.85603,,-76.2204,1037,VIRGINIA BEACH & PECAN POINT,0
36.85331,,-76.17567,1034,VIRGINIA BEACH & FAIR MEADOWS,0
36.85607,,-76.23074,1035,VIRGINIA BEACH & ANNA,0
36.86921,,-76.22707,1212,PRINCESS ANNE & NORCOVA,0
36.86835,,-76.22876,1213,PRINCESS ANNE & MILTATE,0
36.871,,-76.22377,1210,PRINCESS ANNE & MCNEAL,0
36.87012,,-76.22539,1211,PRINCESS ANNE & HALSTEAD,0
36.86583,,-76.2383,1216,PRINCESS ANNE & FAIRBANKS,0
36.86479,,-76.2406,1217,PRINCESS ANNE & MINNESOTA,0
36.86715,,-76.23165,1214,PRINCESS ANNE & EARLY,0
36.86321,,-76.24399,1218,PRINCESS ANNE & INGLESIDE,0
36.86118,,-76.24811,1219,PRINCESS ANNE & CROMWELL,0
36.84128,,-76.3102,5656,CRAWFORD & HATTON,0
36.84041,,-76.31299,5654,ELM & ANN,0
36.99872,,-76.42499,2416,MARSHALL & 48TH,0
36.83785,,-76.31288,5653,ELM & ENTERPRISE,0
36.83812,,-76.313,5650,ELM & ENTERPRISE,0
37.05581,,-76.34554,2899,LITTLE BACK RIVER & WALNUT,0
37.05431,,-76.34601,2898,LITTLE BACK RIVER & RIVERCHASE,0
37.05108,,-76.34712,2897,KING & MACALVA,0
37.04796,,-76.34767,2896,KING & CAVALIER,0
36.85086,,-76.02276,1106,LASKIN & FIRST COLONIAL,0
36.84973,,-76.02856,1107,LASKIN & VICTOR,0
36.77498,,-76.00644,1456,GENERAL BOOTH & CULVER,0
36.78227,,-76.00123,1457,GENERAL BOOTH & HUBBELL,0
36.80948,,-76.09301,1450,HOLLAND & DIANA LEE,0
36.84279,,-76.01103,1103,VIRGINIA BEACH & GARCIA,0
36.8418,,-75.99525,1100,VIRGINIA BEACH & BIRCH LAKE,0
36.84272,,-76.00443,1101,VIRGINIA BEACH & DUKES,0
36.77932,,-76.0029,1458,GENERAL BOOTH & EDISON,0
36.81615,,-76.11128,1459,HOLLAND & WINDSOR OAKS,0
36.84874,,-76.03308,1108,LASKIN & REGENCY,0
36.84776,,-76.03478,1109,LASKIN & MAXEY,0
36.85588,,-76.28837,3869,GRANBY & OLNEY,0
36.85242,,-76.28916,3868,GRANBY & CHARLOTTE,0
36.8514,,-76.28981,3863,GRANBY & FREEMASON,0
36.85275,,-76.28912,3862,GRANBY & BUTE,0
36.85635,,-76.2884,3861,GRANBY & OLNEY,0
36.85782,,-76.28832,3860,GRANBY & VIRGINIA BEACH,0
36.85109,,-76.28984,3867,GRANBY & FREEMASON,0
36.84566,,-76.28914,3866,MAIN & COMMERCIAL,0
36.84363,,-76.28759,3864,WATER & SAINT PAULS,0
36.80466,,-76.35448,5728,VICTORY & FREEDOM,0
36.92969,,-76.25312,5722,TIDEWATER & NORMAN,0
36.932,,-76.25369,5723,TIDEWATER & WOODFORD,0
36.92058,,-76.25306,5720,TIDEWATER & LEONARD,0
36.92525,,-76.25241,5721,TIDEWATER & MARVIN,0
36.92027,,-76.25334,5726,TIDEWATER & LEONARD,0
36.81004,,-76.3585,5727,VICTORY & ELMHURST,0
36.9296,,-76.25333,5724,TIDEWATER &  NORMAN,0
36.92554,,-76.25269,5725,TIDEWATER & MARVIN,0
36.97138,,-76.41497,2805,JEFFERSON & 12TH 2,0
36.76359,,-76.28885,3913,BAINBRIDGE & YACHT,0
36.75524,,-76.2725,3912,MAINS CREEK & GREAT BRIDGE,0
36.76558,,-76.27425,3911,CAMPOSTELLA & KEATS,0
36.7667,,-76.27404,3910,CAMPOSTELLA & EVA,0
36.78841,,-76.13552,0783,LYNNHAVEN & ROUNDHILL,0
36.7874,,-76.14582,0782,LYNNHAVEN & QUARTER,0
36.7866,,-76.1499,0781,LYNNHAVEN & PLEASANT VALLEY,0
36.78539,,-76.15675,0780,LYNNHAVEN & THAMESFORD,0
36.79553,,-76.11146,0787,LYNNHAVEN & RIVERSIDE,0
36.79495,,-76.11726,0786,LYNNHAVEN & WOODBRIDGE,0
36.79301,,-76.11915,0785,LYNNHAVEN & PRINCESS ANNE,0
36.78902,,-76.12791,0784,LYNNHAVEN & GREY FRIARS CHASE,0
36.78738,,-76.10132,0789,TCC,0
36.78921,,-76.10769,0788,BUCKNER & RICA,0
36.86671,,-76.28518,0413,20TH & GRANBY,0
36.86383,,-76.27873,0412,CHURCH & B,0
36.86191,,-76.27838,0411,CHURCH & LEXINGTON,0
36.85958,,-76.27601,0410,GOFF & OKEEFE,0
36.87006,,-76.29417,0417,21ST & MANTEO,0
36.86878,,-76.29035,0416,21ST & DEBREE,0
36.86848,,-76.28865,0415,21ST & LLEWELLYN,0
36.86809,,-76.28716,0414,21ST & OMOHUNDRO,0
36.87301,,-76.30068,0419,21ST & HAMPTON,0
36.87166,,-76.29786,0418,21ST & CORE,0
36.94333,,-76.31205,0239,HAMMOND & ADMIRAL TAUSSIG,0
36.92341,,-76.31601,0233,HAMPTON & BAKER,0
36.92196,,-76.31465,0232,HAMPTON & PORTER,0
36.91992,,-76.31244,0231,HAMPTON & STAFF COLLEGE,0
36.91651,,-76.30881,0230,HAMPTON & DANIEL,0
36.93099,,-76.31779,0236,HAMPTON & MAPLESHADE,0
36.92947,,-76.31765,0235,HAMPTON & BEECHWOOD,0
36.92803,,-76.31752,0234,HAMPTON & FORREST,0
36.79716,,-76.35009,2476,GUST & BUNCHE,0
36.81823,,-76.21696,0813,INDIAN RIVER & LELAND,0
36.97989,,-76.405,2518,16TH & ROANOKE,0
36.88936,,-76.23909,0309,CHESAPEAKE & NORVIEW,0
36.88854,,-76.24047,0308,CHESAPEAKE & HYDE,0
36.88764,,-76.24181,0307,CHESAPEAKE & ESSEX,0
36.88466,,-76.24512,0306,CHESAPEAKE & WAYNE,0
36.88262,,-76.24666,0305,CHESAPEAKE & MONTGOMERY,0
36.88126,,-76.24731,0304,CHESAPEAKE & BUCKINGHAM,0
36.89758,,-76.23858,0303,CHESAPEAKE & CURIE,0
36.87851,,-76.24959,0302,CHESAPEAKE & ROBINHOOD,0
36.87649,,-76.25161,0301,CHESAPEAKE & CROMWELL 2,0
36.87581,,-76.25229,0300,CHESAPEAKE & CROMWELL 1,0
36.9058,,-76.17892,0127,SHORE & DIAMOND SPRINGS,0
36.9069,,-76.17256,0126,SHORE & LAKE SMITH,0
36.90738,,-76.16994,0125,SHORE & KIMBALL,0
36.90709,,-76.16189,0124,SHORE & LAKE SHORES,0
36.90719,,-76.15594,0123,SHORE & JACK FROST,0
36.90651,,-76.15045,0122,SHORE & GELA,0
36.89497,,-76.14124,0121,PLEASURE HOUSE & ANDREW JACKSON,0
36.89268,,-76.14,0120,INDEPENDENCE & SMOKEY,0
36.81613,,-76.33153,5637,PORTSMOUTH & DAHLIA,0
36.92087,,-76.19239,0129,SHORE & DUNNING,0
36.91517,,-76.19111,0128,SHORE & FLOWERFIELD,0
36.98202,,-76.41149,2507,HAMPTON & WICKHAM,0
36.98095,,-76.41419,2506,HAMPTON & MARSHALL,0
36.97988,,-76.41687,2505,HAMPTON & MADISON,0
36.98074,,-76.4105,2550,WICKHAM & 20TH,0
36.98204,,-76.41131,2551,WICKHAM & HAMPTON,0
36.98111,,-76.41404,2552,HAMPTON & MARSHALL,0
36.97909,,-76.41886,2504,HAMPTON & JEFFERSON,0
36.97896,,-76.41942,2554,HAMPTON & JEFFERSON,0
36.97919,,-76.41963,2555,JEFFERSON & HAMPTON,0
36.9814,,-76.42099,2556,JEFFERSON & 25TH,0
36.98476,,-76.43461,2557,WASHINGTON & 36TH,0
36.98538,,-76.435,2558,WASHINGTON & 37TH,0
36.97893,,-76.4196,2503,JEFFERSON & HAMPTON,0
36.98085,,-76.42079,2502,JEFFERSON & 25TH,0
36.86224,,-76.30001,0431,COLLEY & RALEIGH,0
37.13669,,-76.54565,2809,WARWICK & BEECHMONT,0
36.98428,,-76.43445,2501,WASHINGTON & 35TH,0
36.9855,,-76.43521,2500,WASHINGTON & 37TH,0
36.86506,,-76.29954,0433,COLLEY & GRAYDON,0
37.02859,,-76.45719,2778,WARWICK & RIVERMONT,0
37.02718,,-76.4563,2779,WARWICK & RANDOLPH,0
36.86211,,-76.29974,0432,COLLEY & RALEIGH,0
36.84094,,-76.13501,5014,COLUMBUS & INDEPENDENCE,0
36.82164,,-76.06714,5016,LYNNHAVEN & SABRE,0
37.06759,,-76.49234,2649,WARWICK & PRINCE DREW,0
37.04155,,-76.47145,2770,WARWICK & JAMES RIVER,0
37.03969,,-76.46903,2771,WARWICK & RIDGEWAY,0
37.03768,,-76.46747,2772,WARWICK & JAMES RIVER,0
37.03624,,-76.46609,2773,WARWICK & SHIRLEY,0
37.03485,,-76.46424,2774,WARWICK & BRANDON,0
37.03353,,-76.46252,2775,WARWICK & POST,0
37.03241,,-76.4606,2776,WARWICK & MAIN,0
36.86775,,-76.29798,0434,COLLEY & SHIRLEY,0
37.01526,,-76.43535,9498,MARSHALL & 74TH,0
36.99833,,-76.41666,9499,44TH & ROANOKE,0
36.87818,,-76.29476,0437,COLLEY & 35TH,0
36.9738,,-76.41645,2803,JEFFERSON & 14TH,0
36.87483,,-76.29495,0436,COLLEY & 27TH,0
36.97765,,-76.4188,2800,JEFFERSON & 20TH,0
36.76118,,-76.27692,1858,CAMPOSTELLA & GREAT BRIDGE,0
36.75531,,-76.27263,1859,MAINS CREEK & GREAT BRIDGE,0
36.97636,,-76.41802,2801,JEFFERSON & 18TH,0
36.76165,,-76.27605,1850,CAMPOSTELLA & MARCUS,0
36.77284,,-76.27108,1851,CAMPOSTELLA & WADENA,0
36.7768,,-76.26787,1852,CAMPOSTELLA & LINDALE,0
36.77701,,-76.26785,1855,CAMPOSTELLA & LINDALE,0
36.77529,,-76.2692,1856,CAMPOSTELLA & CAROLYN,0
36.7724,,-76.27147,1857,CAMPOSTELLA & BURNS,0
36.98525,,-76.41374,2172,26TH & WICKHAM,0
36.98434,,-76.41603,2173,26TH & MARSHALL,0
36.98698,,-76.4094,2170,26TH & ROANOKE,0
36.98602,,-76.41179,2171,26TH & ORCUTT,0
36.97851,,-76.43071,2176,26TH & WASHINGTON,0
36.98131,,-76.4325,2177,WASHINGTON & 30TH,0
36.98327,,-76.41874,2174,26TH & MADISON,0
36.98222,,-76.42143,2175,26TH & JEFFERSON,0
36.71003,,-76.26536,3845,CEDAR & MILL LANDING,0
36.98222,,-76.43306,2178,WASHINGTON & 32ND,0
36.98349,,-76.43384,2179,WASHINGTON & 34TH,0
36.71644,,-76.23918,3844,BATTLEFIELD & CEDAR,0
36.9758,,-76.41485,2604,IVY & 16TH,0
36.97703,,-76.41621,2605,IVY & 18TH,0
36.97769,,-76.4187,2606,JEFFERSON & 20TH,0
36.98744,,-76.43629,2607,WASHINGTON & 39TH,0
36.97062,,-76.40914,2600,IVY & 6TH,0
36.97209,,-76.41076,2601,IVY & 9TH,0
36.97362,,-76.41245,2602,IVY & 12TH,0
36.97464,,-76.41356,2603,IVY & RIDLEY,0
36.71675,,-76.28364,3846,CEDAR & ROUNTREE,0
36.98859,,-76.43699,2608,WASHINGTON & 42ND,0
36.9896,,-76.43762,2609,WASHINGTON & 43RD,0
37.09273,,-76.47337,3261,CANON & MIDDLE GROUND,0
37.09109,,-76.47236,3260,CANON & BLUECRAB,0
36.99967,,-76.44177,3263,NORTH GATE GRUMMAN (Shipyard & Huntington),0
37.09155,,-76.47671,3262,MIDDLE GROUND & TUG BOAT,0
37.08321,,-76.46699,3265,THIMBLE SHOALS & DILIGENCE,0
36.77746,,-76.2259,5129,GREENBRIER MALL,0
36.99574,,-76.39192,3267,KECOUGHTAN & APPLE,0
37.0711,,-76.47317,3266,JEFFERSON & ROBINSON,0
37.0674,,-76.47093,3269,JEFFERSON & HUBER,0
37.06956,,-76.47221,3268,JEFFERSON & GROOME,0
36.7755,,-76.22814,5126,EDEN & GREENBRIER,0
36.77534,,-76.22831,5127,EDEN & GREENBRIER,0
36.82698,,-76.1319,1429,INDEPENDENCE & EDWIN,0
36.82176,,-76.12378,1428,HOLLAND & COMMUTER,0
36.81602,,-76.3291,1739,DEEP CREEK & PORTSMOUTH,0
36.81835,,-76.32588,1738,DEEP CREEK & GRAHAM,0
36.82427,,-76.32038,1731,LINCOLN & AZALEA,0
36.82433,,-76.31862,1730,LINCOLN & DES MOINES,0
36.82425,,-76.32161,1732,LINCOLN & DEEP CREEK,0
36.82369,,-76.32513,1735,COLUMBUS & DALE,0
36.82416,,-76.3241,1734,LINCOLN & NASHVILLE,0
36.82121,,-76.32502,1737,COLUMBUS & DALE,0
36.82269,,-76.32509,1736,COLUMBUS & PALMER,0
36.87913,,-76.22624,0946,ROBIN HOOD & AZALEA GARDEN,0
36.78933,,-76.11268,3783,PRINCESS ANNE & INDEPENDENCE,0
36.78294,,-76.33468,3780,GEORGE WASHINGTON & WOODLAND,0
37.04516,,-76.42875,3070,BIG BETHEL & OLD BIG BETHEL,0
37.04275,,-76.42798,3071,BIG BETHEL & TODDS,0
36.82066,,-76.34637,1597,TURNPIKE & RODMAN,0
36.78117,,-76.33604,3781,GEORGE WASHINGTON & GILMERTON,0
37.05576,,-76.32944,2958,FOX HILL & DUNHAM MASSIE 2,0
37.0431,,-76.4392,3075,TODDS & RIDGECREST,0
37.04266,,-76.44148,3076,ORCUTT & TODDS,0
37.03506,,-76.4409,3077,ORCUTT & FRIENDLY,0
37.059,,-76.3174,2954,FOX HILL & WOODLAND,0
37.05878,,-76.32073,2955,FOX HILL & PAGE,0
37.05706,,-76.3264,2956,FOX HILL & WILLOW OAKS,0
37.05648,,-76.32812,2957,FOX HILL & DUNHAM MASSIE 1,0
36.81665,,-76.35317,1599,TURNPIKE & KINGS,0
37.05908,,-76.3028,2951,FOX HILL & SAINT ASHLEY,0
37.05776,,-76.30689,2952,FOX HILL & BAXTER,0
37.05665,,-76.31139,2953,FOX HILL & NICKERSON,0
36.85224,,-76.26762,1025,VIRGINIA BEACH & MARSHALL,0
36.87652,,-76.28862,0749,COLONIAL & 31ST,0
36.85197,,-76.261,1027,VIRGINIA BEACH & MAPOLE,0
36.85188,,-76.26395,1026,VIRGINIA BEACH & COVENANT,0
36.87971,,-76.30251,3784,38TH & HAMPTON,0
36.85506,,-76.27648,1023,VIRGINIA BEACH & CHAPEL,0
36.85736,,-76.28206,1022,VIRGINIA BEACH & SAINT PAUL,0
36.88883,,-76.30284,3785,HAMPTON & 49TH,0
36.8521,,-76.25762,1029,VIRGINIA BEACH & MAJESTIC,0
36.85203,,-76.25919,1028,VIRGINIA BEACH & OAKLAWN,0
36.87813,,-76.28864,0748,35TH & COLONIAL,0
36.87183,,-76.22225,1209,PRINCESS ANNE & BEEKMAN,0
36.87424,,-76.21779,1208,PRINCESS ANNE & GABRIEL,0
36.86598,,-76.20491,1205,LOWERY & KEMPSVILLE,0
36.86491,,-76.20685,1204,LOWERY & WALMART,0
36.87509,,-76.21252,1207,PRINCESS ANNE & COWAND,0
36.86991,,-76.2042,1206,KEMPSVILLE & LAKE TAYLOR HIGH SCHOOL,0
36.87441,,-76.20918,1201,PRINCESS ANNE & MILITARY,0
36.86473,,-76.20739,1203,LOWERY & MILITARY (FrmFrsh),0
36.86565,,-76.20569,1202,LOWERY & KEMPSVILLE,0
36.84054,,-76.31311,5649,ELM & CRAWFORD,0
36.84133,,-76.31296,5648,CRAWFORD & ELM,0
36.94767,,-76.24098,5641,OCEAN VIEW & CHESAPEAKE ST,0
37.04356,,-76.38974,5640,COLISEUM & VON SCHILLING,0
36.77417,,-76.28666,5645,BAINBRIDGE & SMITH DOUGLAS,0
36.79935,,-76.27662,5644,BAINBRIDGE & SWAIN,0
36.7972,,-76.27728,5647,BAINBRIDGE & REDSTART,0
36.76106,,-76.28847,5646,BAINBRIDGE & CARVER,0
36.81825,,-76.11815,3108,HOLLAND & LORD BYRON,0
36.80165,,-76.31764,3109,AFTON & PROSPECT,0
37.10634,,-76.49464,3104,JEFFERSON & OYSTER POINT 2,0
37.12846,,-76.51036,3106,BLAND & JEFFERSON,0
37.08347,,-76.46593,3107,DILIGENCE & THIMBLE SHOALS,0
36.91303,,-76.25516,3101,TIDEWATER & STANLEY,0
37.08888,,-76.46435,3103,OMNI & ROCK LANDING,0
36.84192,,-76.05042,1111,VIRGINIA BEACH & GREAT NECK,0
36.80897,,-76.09287,1446,HOLLAND & NORTHWOOD,0
36.81172,,-76.09539,1445,HOLLAND & CHANTRY,0
36.81247,,-76.09656,1444,HOLLAND & GARFIELD,0
36.8441,,-76.06951,1115,VIRGINIA BEACH & YORKTOWN,0
36.84262,,-76.06548,1114,VIRGINIA BEACH & MUSTANG,0
36.81752,,-76.11735,1441,HOLLAND & WATERS,0
36.84289,,-76.08206,1116,VIRGINIA BEACH & CRANSTON,0
36.84147,,-76.09196,1119,VIRGINIA BEACH & LITTLE NECK,0
36.84195,,-76.08841,1118,VIRGINIA BEACH & KING RICHARD,0
37.02688,,-76.40508,2478,ABERDEEN & RUSSELL,0
36.80145,,-76.08683,1449,HOLLAND & GREEN RUN,0
36.80151,,-76.08717,1448,HOLLAND & GREEN RUN,0
36.79463,,-76.40054,5735,AIRLINE & PIERCE,0
36.86135,,-76.27853,5734,CHURCH & WASHINGTON,0
36.8502,,-76.20985,5737,MILITARY btwn POPLAR HALL & MALL ENTRANCE,0
36.71323,,-76.25492,5736,CEDAR & ALBEMARLE,0
36.81548,,-76.35766,5730,PORTSMOUTH & DELAWARE,0
36.85651,,-76.22462,5733,VIRGINIA BEACH & JETT,0
36.80719,,-76.34803,5732,MCLEAN & GYGAX,0
36.95163,,-76.53165,5739,CARROLLTON & SMITHS NECK,0
36.86141,,-76.02727,5738,FIRST COLONIAL & WILDWOOD,0
36.9449,,-76.27986,9803,BELLINGER & 5TH,0
36.94465,,-76.29594,9802,BELLINGER & FOURTH,0
36.98401,,-76.42261,2301,JEFFERSON & 28TH,0
36.98615,,-76.42393,2303,JEFFERSON & 32ND,0
36.98462,,-76.42298,2302,JEFFERSON & 30TH,0
36.98887,,-76.42241,2305,35TH & MADISON,0
36.79535,,-76.32882,1564,VICTORY & GEORGE WASHINGTON,0
36.98763,,-76.42484,2304,JEFFERSON & 35TH,0
36.98994,,-76.41973,2306,35TH & MARSHALL,0
36.84124,,-76.31232,5655,CRAWFORD & WEBSTER,0
36.85997,,-76.20708,0938,JANAF & CIRCUIT CITY,0
36.86621,,-76.21071,0939,MILITARY & LAKE HERBERT,0
36.87527,,-76.2952,0428,COLLEY & 27TH,0
36.87401,,-76.29546,0429,COLLEY & 25TH,0
36.82373,,-76.2106,0934,MILITARY & BULLIS,0
36.82864,,-76.21032,0935,MILITARY & BROCKMAN,0
36.88877,,-76.29523,0424,COLLEY & 50TH,0
36.88233,,-76.2949,0425,COLLEY & 41ST,0
36.79786,,-76.23372,0930,MILITARY & OLD GREENBRIER,0
36.80022,,-76.23052,0931,MILITARY & SMITH,0
36.80247,,-76.22749,0932,MILITARY & PARAMONT,0
36.80582,,-76.22292,0933,MILITARY & LOCKARD,0
36.79323,,-76.11937,3856,PRINCESS ANNE & LYNNHAVEN,0
36.71181,,-76.27673,3857,CEDAR & COUNTRY CLUB,0
36.81064,,-76.20216,3854,INDIAN RIVER & LEVEL GREEN,0
36.80959,,-76.20013,3855,INDIAN RIVER & REON,0
36.94394,,-76.25803,3852,TIDEWATER & LORENGO,0
36.94218,,-76.25651,3853,TIDEWATER & LEICESTER,0
36.96725,,-76.28615,3850,OCEAN VIEW & LECLAIRE,0
36.96106,,-76.2633,3851,OCEAN VIEW & 5TH VIEW,0
36.85888,,-76.27381,0449,GOFF & MIDRISE,0
36.79987,,-76.36492,1566,GREENWOOD & CLAY,0
36.8637,,-76.29428,0755,COLONIAL & PRINCESS ANNE,0
36.85576,,-76.23377,0688,VIRGINIA BEACH & AZALEA GARDEN 2,0
36.89362,,-76.25735,0999,TIDEWATER & BRIGHTLEY,0
36.87668,,-76.23307,0682,SEWELLS POINT & ATTERBURY,0
36.87529,,-76.23284,0683,SEWELLS POINT & WOOLSEY,0
36.88394,,-76.23472,0680,SEWELLS POINT & WINDERMERE,0
36.8815,,-76.23387,0681,SEWELLS POINT & KENNEBECK,0
36.86118,,-76.23376,0686,AZALEA GARDEN & VILLAGE,0
36.85644,,-76.23256,0687,AZALEA GARDEN & VIRGINIA BEACH,0
36.86911,,-76.23343,0684,AZALEA GARDEN & EARLY,0
36.86606,,-76.23529,0685,AZALEA GARDEN & PRINCESS ANNE,0
36.943,,-76.24568,0332,CHESAPEAKE & DUDLEY,0
36.9393,,-76.24516,0330,CHESAPEAKE & CHESTER,0
36.94054,,-76.24534,0331,CHESAPEAKE & WARWICK,0
36.914,,-76.30663,0336,HAMPTON & RUNNYMEDE,0
36.88121,,-76.24766,0335,CHESAPEAKE & BUCKINGHAM,0
36.85588,,-76.13442,0112,INDEPENDENCE & CONSTITUTION,0
36.85818,,-76.13346,0113,INDEPENDENCE & HESSIAN,0
36.8459,,-76.13661,0110,INDEPENDENCE & BROAD,0
36.84851,,-76.13655,0111,INDEPENDENCE & JEANNE,0
36.87533,,-76.13435,0116,INDEPENDENCE & WISHART,0
36.8806,,-76.13301,0117,INDEPENDENCE & WAKEFIELD,0
36.86378,,-76.13197,0114,INDEPENDENCE & PEMBROKE (mdblk),0
36.86778,,-76.1327,0115,INDEPENDENCE & WITCHDUCK (mdblk),0
36.88803,,-76.13676,0118,INDEPENDENCE & FIVE FORKS,0
36.98485,,-76.40464,2543,HAMPTON & CHESTNUT,0
36.98589,,-76.40201,2542,HAMPTON & OAK,0
36.98582,,-76.40059,2541,HAMPTON & GARNER,0
36.98518,,-76.39907,2540,HAMPTON & 19TH,0
36.97909,,-76.407,2547,16TH & TEEN,0
36.98115,,-76.40599,2546,ROANOKE & 18TH,0
36.98242,,-76.40678,2545,ROANOKE & 20TH,0
36.9833,,-76.40732,2544,ROANOKE & HAMPTON,0
36.97947,,-76.40971,2549,WICKHAM & 18TH,0
36.97832,,-76.40893,2548,16TH & WICKHAM,0
36.8428,,-76.01172,1104,VIRGINIA BEACH & SCOTT,0
37.03322,,-76.39194,2381,POWER PLANT & PINE CHAPEL,0
36.98384,,-76.42263,2380,JEFFERSON & 29TH,0
36.85977,,-76.29615,0756,COLONIAL & BOISSEVAIN,0
36.87284,,-76.29017,0757,COLONIAL & 26TH,0
36.87544,,-76.28912,0750,COLONIAL & 30TH,0
36.87304,,-76.2902,0751,COLONIAL & 26TH,0
36.87234,,-76.29052,0752,COLONIAL & 25TH,0
36.86864,,-76.29214,0753,COLONIAL & 21ST,0
36.84274,,-76.00581,1102,VIRGINIA BEACH & SHIPPS,0
36.83124,,-76.2592,0758,INDIAN RIVER & OAKWOOD,0
36.8941,,-76.23915,0759,SEWELLS POINT & STRAND,0
36.86595,,-76.30107,0208,HAMPTON & GRAYDON,0
36.86664,,-76.30045,0209,HAMPTON & PRINCESS ANNE,0
36.80595,,-76.0903,5003,HOLLAND & STONESHORE,0
36.91498,,-76.27463,2384,LITTLE CREEK & COLONIAL (farside),0
37.04223,,-76.47232,2769,WARWICK & ELM,0
37.04322,,-76.47313,2768,WARWICK & CEDAR,0
36.84168,,-76.13113,5006,CONSTITUTION & COLUMBUS,0
37.0557,,-76.4816,2763,WARWICK & MATTHEW,0
37.15693,,-76.5345,2762,JEFFERSON & KINGS RIDGE,0
37.06372,,-76.48984,2761,WARWICK & SWEETBRIAR,0
37.0666,,-76.49217,2760,WARWICK & UNIVERSITY,0
37.04686,,-76.4737,2767,WARWICK & LOGAN,0
36.88328,,-76.31249,9158,POWHATAN & 43RD,0
37.05195,,-76.4782,2765,WARWICK & COPELAND,0
37.05355,,-76.47993,2764,WARWICK & FONTAINE,0
36.85542,,-76.13501,0103,INDEPENDENCE & JERICHO,0
36.86366,,-76.13231,0102,INDEPENDENCE & PEMBROKE (near side),0
36.75714,,-76.2806,1849,LIBERTYVILLE & CHANNEL,0
36.75725,,-76.28414,1848,LIBERTYVILLE & BAINBRIDGE,0
36.79189,,-76.27961,1843,BAINBRIDGE & HILL,0
36.79609,,-76.27788,1842,BAINBRIDGE & ROWLAND,0
36.79736,,-76.27735,1841,BAINBRIDGE & HARVARD,0
36.80447,,-76.27626,1840,BAINBRIDGE & BEECH,0
36.78053,,-76.28415,1847,BAINBRIDGE & YAGER,0
36.78577,,-76.28205,1846,BAINBRIDGE & BURROW,0
36.78818,,-76.28109,1845,BAINBRIDGE & GODWIN,0
36.79026,,-76.28027,1844,BAINBRIDGE & ROSEMONT,0
36.84155,,-76.21259,9558,CURLEW & PEBBLE,0
36.83593,,-76.30684,5202_merged_67032,EFFINGHAM & QUEEN,0
36.98806,,-76.40669,2169,26TH & CHESTNUT,0
36.98894,,-76.40448,2168,26TH & OAK,0
36.99362,,-76.39441,2165,25TH & HICKORY,0
36.99479,,-76.39302,2164,KECOUGHTAN & PEAR,0
36.9906,,-76.39796,2167,25TH & BUXTON,0
36.9924,,-76.39586,2166,25TH & MAPLE,0
36.99951,,-76.38502,2161,KECOUGHTAN & CLIFTON,0
37.0009,,-76.38192,2160,KECOUGHTAN & ROBINSON,0
36.99646,,-76.39107,2163,KECOUGHTAN & LOCUST,0
36.99789,,-76.38935,2162,KECOUGHTAN & HOLLYWOOD,0
37.00166,,-76.44025,2617,WARWICK & 60TH,0
37.00039,,-76.43945,2616,WARWICK & 58TH,0
36.99848,,-76.43827,2615,WARWICK & 55TH,0
36.99723,,-76.4375,2614,WARWICK & 53RD,0
36.99598,,-76.43674,2613,WARWICK & 51ST,0
36.99405,,-76.43749,2612,49TH & HUNTINGTON,0
36.99283,,-76.43963,2611,WASHINGTON & 49TH,0
36.99116,,-76.43859,2610,WASHINGTON & 46TH,0
37.00596,,-76.4429,2619,WARWICK & 66TH,0
37.00357,,-76.44142,2618,WARWICK & 63RD,0
37.00018,,-76.43279,3298,JEFFERSON & PENINSULA,0
36.99723,,-76.43097,3299,JEFFERSON & 50TH,0
37.00894,,-76.43819,3294,JEFFERSON & HILTON,0
37.00586,,-76.43628,3295,JEFFERSON & BRIARFIELD,0
37.00389,,-76.43508,3296,JEFFERSON & TEMPLE,0
37.00172,,-76.43373,3297,JEFFERSON & ELLEN,0
37.02197,,-76.44626,3290,JEFFERSON & MORRIS,0
36.94711,,-76.30115,5132,FRANKLIN & 2ND,0
36.94721,,-76.30113,5131,FRANKLIN & SECOND,0
37.01161,,-76.43985,3293,JEFFERSON & 72ND,0
36.98731,,-76.41258,2463,28TH & ORCUTT,0
36.87375,,-76.29519,0435,COLLEY & 25TH,0
36.72692,,-76.58494,7008,CHERRY & POPLAR,0
36.87632,,-76.2886,0730,COLONIAL & 31ST,0
37.06762,,-76.42534,3063,THOMAS NELSON & BATTLE,0
37.15729,,-76.53465,3062,JEFFERSON & KINGS RIDGE,0
36.85944,,-76.27582,3060,GOFF & OKEEFE,0
37.05538,,-76.42832,3067,BIG BETHEL & BROGDEN,0
37.05765,,-76.42779,3066,BIG BETHEL & MICHAELS WOODS,0
37.05608,,-76.30094,2949,OLD BUCKROE & RANALET,0
37.06898,,-76.42618,3064,THOMAS NELSON & BIG BETHEL,0
37.05109,,-76.30328,2947,ANDREWS & FRANKTOWN,0
37.05014,,-76.3049,2946,ANDREWS & ZINZER,0
37.04938,,-76.42932,3069,BIG BETHEL & RADFORD 2,0
37.05337,,-76.42861,3068,BIG BETHEL & BURTON (BHS),0
37.04443,,-76.30911,2943,AMHERST & RAWOOD,0
37.04207,,-76.3068,2942,SKYLAND & AMHERST,0
37.03993,,-76.30625,2941,PEMBROKE & SKYLAND,0
37.04162,,-76.30393,2940,OLD BUCKROE & RICHARD,0
36.84879,,-76.16457,1050,VIRGINIA BEACH & CLEARFIELD,0
36.84806,,-76.16275,1051,VIRGINIA BEACH & NELMS,0
36.84746,,-76.16125,1052,VIRGINIA BEACH & NORTHRIDGE,0
36.84562,,-76.15672,1053,VIRGINIA BEACH & WITCHDUCK,0
36.84496,,-76.15512,1054,VIRGINIA BEACH & PENNSYLVANIA,0
36.84361,,-76.15013,1055,VIRGINIA BEACH & OPAL,0
36.84355,,-76.14603,1056,VIRGINIA BEACH & ARAGONA,0
36.84351,,-76.1434,1057,VIRGINIA BEACH & HORACE,0
36.84348,,-76.14108,1058,VIRGINIA BEACH & FIRST,0
36.8433,,-76.12837,1059,VIRGINIA BEACH & BEASLEY,0
36.8344,,-76.34372,1696,HIGH & CUMBERLAND,0
36.83628,,-76.34835,1697,HIGH & ROCKBRIDGE,0
36.83488,,-76.32245,1694,HIGH & YORKTOWN,0
36.83447,,-76.34045,1695,HIGH & POTOMAC,0
36.83526,,-76.3021,1692,HIGH & DINWIDDIE,0
36.83495,,-76.3198,1693,HIGH & WILLIAMSBURG,0
36.83516,,-76.30706,1690,HIGH & EFFINGHAM,0
36.83505,,-76.31148,1691,HIGH & PRIMROSE,0
36.87786,,-76.30196,0215,HAMPTON & 35TH,0
36.83721,,-76.34985,1698,HIGH & WILLETT,0
36.8402,,-76.35555,1699,HIGH & GRAYSON,0
36.86615,,-75.98128,1278,PACIFIC & 38TH,0
36.86405,,-75.98074,1279,PACIFIC & 36TH,0
36.88648,,-75.98758,1270,ATLANTIC & 61ST,0
36.8834,,-75.98667,1271,ATLANTIC & 57TH,0
36.87847,,-75.98515,1272,ATLANTIC & 51ST,0
36.87407,,-75.98358,1273,ATLANTIC & 46TH,0
36.873,,-75.98327,1274,ATLANTIC & 45TH,0
36.87135,,-75.98281,1275,ATLANTIC & 43RD,0
36.87093,,-75.98269,1276,ATLANTIC & 42ND,0
36.86956,,-75.9823,1277,PACIFIC & ATLANTIC,0
36.90451,,-76.24288,0660,SEWELLS POINT & KITTREL,0
36.86474,,-76.28516,0190,MONTICELLO & 18TH,0
36.83517,,-76.30639,1633,HIGH & EFFINGHAM,0
36.80352,,-76.18765,3333,INDIAN RIVER & CENTERVILLE,0
36.86243,,-76.28612,0191,MONTICELLO & 15TH,0
36.79971,,-76.36211,3119,GREENWOOD & LANGLEY,0
36.80033,,-76.3695,3118,DARREN & GREENWOOD,0
36.79589,,-76.33899,3117,VICTORY & BEECHDALE,0
36.79256,,-76.3481,3116,AVONDALE & GLENWOOD,0
36.79162,,-76.35308,3115,AVONDALE & RIDDICK,0
36.79164,,-76.35334,3114,AVONDALE & RIDDICK,0
36.79705,,-76.36817,3113,HORNE & STAUFFER,0
36.82847,,-76.06716,3331,LYNNHAVEN & VIKING,0
36.79283,,-76.35746,3111,ROOSEVELT & WELK,0
36.79261,,-76.34835,3110,AVONDALE & GLENWOOD,0
36.81597,,-76.06315,1470,INTERNATIONAL & SEAHAWK,0
37.19256,,-76.57525,3330,ELMHURST & WARWICK,0
36.91009,,-76.24575,0666,SEWELLS POINT & DENISON,0
36.90786,,-76.24461,0667,SEWELLS POINT & AVENUE E,0
36.91,,-76.06793,1304,GREAT NECK & WILLOW OAK,0
36.84955,,-76.17951,1305,NEWTOWN & LARRY,0
36.8513,,-76.17859,1307,NEWTOWN & ELAM,0
36.85262,,-76.19253,1301,KEMPSVILLE & KEMPSVILLE CIRCLE,0
36.85391,,-76.19335,1302,KEMPSVILLE & WELLVILLE,0
36.91023,,-76.06766,1303,GREAT NECK & WILLOW OAK,0
36.84979,,-76.17956,1308,NEWTOWN & ETHAN ALLEN,0
36.84394,,-76.18504,1309,NEWTOWN & GREENWICH,0
36.84633,,-76.25283,5740,BALLENTINE & LRT STATION,0
36.84117,,-76.18951,5741,CURLEW & BANGOR,0
36.85915,,-76.30429,5744,BRAMBLETON & COLLEY,0
36.85018,,-76.29044,9321,GRANBY & COLLEGE,0
37.09743,,-76.48938,3181,JEFFERSON & BELL KING,0
36.88968,,-76.29516,0439,COLLEY & 52ND,0
36.8846,,-76.2949,0438,COLLEY & 44TH,0
36.88209,,-76.28203,0928,GRANBY & 39TH,0
36.94432,,-76.25975,0927,GRANBY & LORENGO,0
36.86527,,-76.29956,0430,COLLEY & GRAYDON,0
36.79981,,-76.23153,0925,MILITARY & SMITH,0
36.80223,,-76.22824,0924,MILITARY & PARAMONT,0
36.80658,,-76.22231,0923,MILITARY & SPARROW,0
36.80965,,-76.21913,0922,MILITARY & PROVIDENCE,0
36.8227,,-76.21147,0921,MILITARY & BULLIS,0
36.82845,,-76.2107,0920,MILITARY & BROCKMAN,0
37.03822,,-76.44102,5692,ORCUTT & SHARPLEY,0
36.84576,,-75.98546,5693,PARKS & 19TH,0
36.76165,,-76.25084,3842,BATTLEFIELD & BYRON,0
36.87393,,-76.40855,5696,TOWNE POINT & RED BARD,0
36.80985,,-76.35201,5697,VICTORY CROSSING,0
36.8419,,-76.25192,3847,KIMBALL & COURT 2,0
36.80061,,-76.17355,5695,KEMPSVILLE & BONNEYDALE,0
36.91003,,-76.25597,3849,TIDEWATER & EASY,0
36.94453,,-76.25802,3848,TIDEWATER & GILPIN,0
36.79448,,-76.23873,5698,MILITARY & PARKVIEW,0
36.79433,,-76.23848,5699,MILITARY & PARKVIEW,0
36.96723,,-76.29019,0695,OCEAN VIEW & 13TH VIEW,0
36.96726,,-76.28436,0694,OCEAN VIEW & 12TH VIEW,0
36.96721,,-76.29353,0696,OCEAN VIEW & 15TH VIEW,0
36.84984,,-76.23803,0691,GATLING & WAKEFIELD,0
36.85467,,-76.2396,0690,VIRGINIA BEACH & INGLESIDE,0
36.96721,,-76.2812,0693,OCEAN VIEW & 11TH VIEW,0
36.85185,,-76.2479,0692,BALLENTINE & CONNECTOR,0
36.84284,,-76.25766,0699,KIMBALL & MAJESTIC,0
36.84261,,-76.25628,0698,KIMBALL & NORCHESTER,0
36.93026,,-76.24376,0324,CHESAPEAKE & FISHERMANS,0
36.93562,,-76.24459,0327,CHESAPEAKE & EARL,0
36.93374,,-76.24431,0326,CHESAPEAKE & BAYVIEW,0
36.92194,,-76.24246,0321,CHESAPEAKE & WINSTON,0
36.92026,,-76.24221,0320,CHESAPEAKE & BURKSDALE,0
36.9264,,-76.24315,0323,CHESAPEAKE & FRANK,0
36.92379,,-76.24275,0322,CHESAPEAKE & SHEPPARD,0
36.93691,,-76.24479,0328,CHESAPEAKE & DUNE,0
36.85911,,-76.24953,2288,BALLENTINE & PRINCESS ANNE,0
37.0252,,-76.32517,2289,WOODLAND & OLD BUCKROE,0
36.7905,,-76.23528,0197,WOODLAKE & OLD GREENBRIAR,0
36.75652,,-76.00803,0109,ELSON GREEN & UPTON,0
36.76152,,-76.00674,0108,NIMMO & UPTON,0
37.04834,,-76.39701,2280,EXECUTIVE & CUNNINGHAM 2,0
37.04978,,-76.39755,2281,EXECUTIVE & MARCELLA,0
37.05009,,-76.39623,2282,MARCELLA & HARTFORD,0
37.04949,,-76.39164,2283,COLISEUM & MARCELLA,0
36.81075,,-76.36429,2284,AIRLINE & CHOWAN,0
37.27637,,-76.70829,2285,BOUNDARY & ARMISTEAD,0
36.8702,,-76.2915,2286,COLONIAL & 23RD,0
36.87017,,-76.29139,2287,COLONIAL & 22ND,0
37.02663,,-76.40493,2578,ABERDEEN & RUSSELL,0
37.02837,,-76.40521,2579,ABERDEEN & E. DAVIS,0
37.02179,,-76.40426,2576,ABERDEEN & WINGFIELD,0
37.02589,,-76.40483,2577,ABERDEEN & GRANGER,0
37.01856,,-76.40635,2574,BRIARFIELD & ABERDEEN,0
37.01984,,-76.40395,2575,ABERDEEN & BRIARFIELD,0
37.01739,,-76.41107,2572,BRIARFIELD & E,0
37.01806,,-76.41022,2573,BRIARFIELD & BUTLER,0
37.01429,,-76.4149,2570,BRIARFIELD & BRIARWOOD,0
37.01572,,-76.41312,2571,BRIARFIELD & JANET,0
36.87819,,-76.2905,0747,NEWPORT & 35TH,0
36.87547,,-76.30182,0213,HAMPTON & 25TH,0
36.87039,,-76.30098,0212,HAMPTON & GATES,0
36.98602,,-76.42398,2378,JEFFERSON & 32ND,0
36.98474,,-76.42319,2379,JEFFERSON & 30TH,0
36.88091,,-76.30212,0217,HAMPTON & 39TH,0
36.87886,,-76.30202,0216,HAMPTON & 37TH,0
36.99011,,-76.41958,2374,35TH & MARSHALL,0
36.98969,,-76.42267,2375,36TH & MADISON,0
36.98862,,-76.42533,2376,36TH & JEFFERSON,0
36.98731,,-76.42478,2377,JEFFERSON & 34TH,0
36.99366,,-76.41063,2370,35TH & CHESTNUT,0
36.99272,,-76.41297,2371,35TH & ROANOKE,0
36.99179,,-76.41532,2372,35TH & ORCUTT,0
36.99117,,-76.41689,2373,35TH & WICKHAM,0
36.78656,,-75.99923,9121,GENERAL BOOTH & DAM NECK,0
36.85568,,-76.02505,5038,FIRST COLONIAL & WOLFSNARE,0
36.76025,,-76.00548,9127,UPTON & NIMMO,0
36.90015,,-76.0657,5030,GREAT NECK & ADAM KEELING,0
36.75718,,-76.28772,1876,LIBERTYVILLE & BAINBRIDGE,0
36.81582,,-76.33657,1877,PORTSMOUTH & ROYAL,0
36.81718,,-76.27614,1874,POINDEXTER & DECATUR,0
36.81857,,-76.27316,1875,POINDEXTER & JACKSON,0
36.81345,,-76.27827,1872,BAINBRIDGE & JEFFERSON,0
36.81495,,-76.27857,1873,BAINBRIDGE & OHIO,0
36.80596,,-76.27652,1870,BAINBRIDGE & HUGHES,0
36.80801,,-76.27711,1871,BAINBRIDGE & WILBUR,0
36.81593,,-76.3344,1878,PORTSMOUTH & ARCADIA,0
37.02466,,-76.35691,2835,SETTLERS LANDING & BACK RIVER,0
37.03214,,-76.40381,2118,WEAVER & LANGSTON,0
37.03451,,-76.39978,2119,WEAVER & NEWBY,0
37.0236,,-76.42582,2110,79TH & MERRIMAC,0
37.02489,,-76.42312,2111,WEAVER & MARTHA LEE,0
37.02589,,-76.42129,2112,WEAVER & MANCHESTER,0
37.02714,,-76.41881,2113,WEAVER & BIG BETHEL,0
37.02936,,-76.41438,2114,WEAVER & WOODBURY FOREST,0
37.03076,,-76.4116,2115,WEAVER & GUMWOOD,0
37.03124,,-76.41059,2116,WEAVER & TWIN OAKS,0
37.03172,,-76.40815,2117,WEAVER & MARY PEAKE,0
37.01266,,-76.44716,2622,WARWICK & 73RD,0
37.01934,,-76.45118,2623,WARWICK & UNION,0
37.00783,,-76.44406,2620,WARWICK & 68TH,0
37.0112,,-76.4462,2621,WARWICK & 71ST,0
37.02627,,-76.45545,2626,WARWICK & WOODFIN,0
37.02714,,-76.45599,2627,WARWICK & RANDOLPH,0
37.02215,,-76.45286,2624,WARWICK & LAFAYETTE,0
37.0247,,-76.45447,2625,WARWICK & NORTH,0
37.02857,,-76.45688,2628,WARWICK & RIVERMONT,0
37.0308,,-76.45819,2629,WARWICK & HOPKINS,0
36.80553,,-76.38093,1919,AIRLINE & ELMHURST,0
36.80678,,-76.37671,1918,AIRLINE & LANCER,0
37.02373,,-76.44739,3289,JEFFERSON & BROOKE,0
37.02584,,-76.44869,3288,JEFFERSON & WILCOX,0
36.87936,,-76.30223,1911,HAMPTON & 38TH,0
36.9355,,-76.21434,1910,OCEAN VIEW & 2ND BAY,0
36.8488,,-76.21152,1913,BEST SQUARE,0
37.03277,,-76.45296,3284,JEFFERSON & BELLWOOD,0
37.03532,,-76.45454,3283,JEFFERSON & ABERTHAW,0
37.03645,,-76.45524,3282,JEFFERSON & MAIN,0
37.04069,,-76.4579,3281,JEFFERSON & FRANCISCO,0
37.04443,,-76.45968,3280,JEFFERSON & MCLAWHORNE,0
37.00473,,-76.37462,2024,KECOUGHTAN & OCANOE,0
37.00576,,-76.37268,2025,KECOUGHTAN & RALEIGH,0
37.07737,,-76.49541,2754,WARWICK & WELLESLEY,0
37.00754,,-76.36843,2027,KECOUGHTAN & ALLEGHANY,0
37.00103,,-76.38158,2020,KECOUGHTAN & ROBINSON,0
37.00208,,-76.37967,2021,KECOUGHTAN & WYTHE,0
37.00261,,-76.37868,2022,KECOUGHTAN & CHESTERFIELD,0
37.08321,,-76.49817,2751,WARWICK & TURLINGTON,0
37.00779,,-76.36523,2028,KECOUGHTAN & ALGONQUIN,0
37.00804,,-76.36187,2029,KECOUGHTAN & EAST,0
37.06948,,-76.49314,2758,WARWICK & HIDEN,0
37.16621,,-76.54179,2759,JEFFERSON & MASON,0
36.81548,,-76.34293,5217,PORTSMOUTH & IVEY,0
36.82264,,-76.1518,1503,PRINCESS ANNE & BAXTER,0
37.042,,-76.31465,2978,GRIMES & SOMERVILLE,0
37.04353,,-76.31447,2979,ANDREWS & GRIMES,0
37.06347,,-76.42712,3058,BIG BETHEL & TOWN CENTER,0
37.06919,,-76.42731,3059,THOMAS NELSON & BIG BETHEL,0
37.05233,,-76.42864,3056,BIG BETHEL & BURTON,0
37.03365,,-76.32135,2973,PEMBROKE & WOODLAND 1,0
37.04547,,-76.34808,2970,KING & THORNROSE,0
37.04063,,-76.30791,2971,PEMBROKE & SKYLAND,0
37.03827,,-76.31435,2976,GRIMES & PEMBROKE,0
37.04063,,-76.31432,2977,GRIMES & KENSINGTON,0
37.04308,,-76.43572,3050,TODDS & WARNER,0
37.0367,,-76.31636,2975,PEMBROKE & RENN,0
36.85503,,-76.19437,1042,VIRGINIA BEACH & KEMPSVILLE,0
36.85523,,-76.19999,1041,VIRGINIA BEACH & GLENROCK,0
36.8551,,-76.2033,1040,GLENROCK & VIRGINIA BEACH,0
36.85391,,-76.17711,1047,VIRGINIA BEACH & NEWTOWN,0
36.85031,,-76.16829,1049,VIRGINIA BEACH & TOY,0
36.85186,,-76.17206,1048,VIRGINIA BEACH & DAVIS,0
36.91637,,-76.20636,0557,LITTLE CREEK & NANCY,0
36.84193,,-76.24992,3027,KIMBALL & COURT 2,0
36.83524,,-76.30323,1685,HIGH & WASHINGTON,0
36.83524,,-76.30738,1687,HIGH & EFFINGHAM,0
36.83503,,-76.31691,1686,HIGH & TWINE,0
36.84262,,-76.24622,3025,KIMBALL & WILEY,0
36.89051,,-75.98885,1269,ATLANTIC & 65TH,0
36.89257,,-75.98943,1268,ATLANTIC & 68TH,0
36.94587,,-76.32405,8866,MORRIS & VIRGINIA,0
36.85052,,-76.25525,3023,CORPREW & NORCHESTER,0
36.89345,,-75.98931,1260,ATLANTIC & 68TH,0
36.85056,,-76.25294,3022,CORPREW & MERRIMAC,0
37.02795,,-76.44998,3287,JEFFERSON & CENTER,0
36.85676,,-76.30413,1242,WOODIS & COLLEY,0
36.82871,,-76.1685,1507,PRINCESS ANNE & PARLIAMENT,0
37.03117,,-76.45166,3286,JEFFERSON & RANDOLPH,0
37.03089,,-76.4518,3285,JEFFERSON & RANDOLPH,0
36.84819,,-76.1867,3128,NORTH CENTER & KEMPSVILLE,0
36.85954,,-76.25044,1912,PRINCESS ANNE & VINCENT,0
36.79992,,-76.36188,3122,GREENWOOD & LANGLEY,0
36.81068,,-76.3648,1915,AIRLINE & CHOWAN,0
36.79968,,-76.36101,3120,GREENWOOD & VIKING,0
36.7999,,-76.35603,3121,GREENWOOD & STRATFORD,0
36.78127,,-76.33581,3126,GEORGE WASHINGTON & GILMERTON,0
36.79607,,-76.33884,3127,VICTORY & KENT,0
36.82641,,-76.33693,3124,TURNPIKE & WILSON 2,0
36.81161,,-76.35269,1914,MCLEAN & BELMONT,0
36.81423,,-76.05718,1469,INTERNATIONAL & VOYAGER,0
36.80831,,-76.37154,1917,AIRLINE & CITY PARK 2,0
36.80891,,-76.36977,1916,AIRLINE & CITY PARK 1,0
36.81161,,-76.05698,1461,INTERNATIONAL & RELIANCE,0
36.81571,,-76.06286,1460,INTERNATIONAL & SEAHAWK,0
36.86254,,-76.17741,1317,BAKER & HAMPSHIRE (mdblk),0
36.86042,,-76.17587,1316,BAKER & HAMPSHIRE (near side),0
36.85701,,-76.17685,1315,NEWTOWN & REDSTONE,0
36.84207,,-76.05235,1312,VIRGINIA BEACH & BYRD,0
36.84404,,-76.18997,1311,KEMPSVILLE & BLACKSTONE,0
36.84318,,-76.189,1310,KEMPSVILLE & BANGOR,0
36.86411,,-76.17843,1318,BAKER & BAKER COURT,0
36.86213,,-76.24621,5752,PRINCESS ANNE & INGLESIDE,0
36.94623,,-76.24449,5751,CHESAPEAKE & BALVIEW,0
36.94616,,-76.24427,5750,CHESAPEAKE & BALVIEW,0
36.84401,,-76.07182,1074,VIRGINIA BEACH & LYNNHAVEN,0
36.8261,,-76.26782,5759,WILSON & MANSON,0
36.8668,,-76.29294,0754,COLONIAL & SPOTSWOOD,0
37.05529,,-76.46346,3274,JEFFERSON & DRESDEN,0
37.17148,,-76.546,2756,JEFFERSON & WOODCREEK,0
36.84891,,-76.20828,0918,POPLAR HALL & MILITARY,0
36.83609,,-76.21067,0919,MILITARY & CORPORATE,0
36.85397,,-76.28001,0452,CHURCH & OLNEY,0
37.07075,,-76.49318,2757,WARWICK & GLENDALE,0
36.87244,,-76.21098,0912,MILITARY & PRINCESS ANNE,0
36.86308,,-76.21057,0913,MILITARY & LOWERY,0
36.87893,,-76.21212,0910,MILITARY & ROBIN HOOD,0
36.87632,,-76.21079,0911,MILITARY & ELIZABETH,0
36.85226,,-76.20328,0916,MILITARY CIRCLE MALL,0
37.0072,,-76.36997,2026,KECOUGHTAN & HAMPTON ROADS,0
36.85988,,-76.20713,0914,JANAF & CIRCUIT CITY,0
37.07607,,-76.49475,2755,WARWICK & MIDDLESEX,0
37.08093,,-76.49759,2752,WARWICK & CULPEPPER,0
36.85552,,-76.20687,2753,VIRGINIA BEACH & MILITARY,0
36.88535,,-76.28862,0736,NEWPORT & NEW JERSEY,0
37.0857,,-76.49769,2750,NETTLES & WARWICK,0
37.00437,,-76.38747,2322,SHELL & PENNSYLVANIA,0
37.00368,,-76.37663,2023,KECOUGHTAN & POWHATAN,0
36.88215,,-76.2897,0734,NEWPORT & VIRGINIA,0
36.88362,,-76.2892,0735,NEWPORT & PENNSYLVANIA,0
36.87946,,-76.29048,0732,NEWPORT & 37TH,0
36.88066,,-76.29021,0733,NEWPORT & GEORGIA,0
36.91966,,-76.24241,0351,CHESAPEAKE & BURKSDALE (far),0
36.91681,,-76.24195,0352,CHESAPEAKE & DOVERCOURT,0
36.91502,,-76.24166,0353,CHESAPEAKE & LITTLE CREEK,0
36.91417,,-76.24363,0354,EVELYN BUTTS & AVENUE J,0
36.91267,,-76.24129,0355,CHESAPEAKE & AVE I,0
36.90759,,-76.24042,0357,CHESAPEAKE & JOHNSTONS,0
36.90519,,-76.24005,0359,CHESAPEAKE & KITRELL,0
36.8781,,-76.28846,0731,COLONIAL & 35TH,0
36.87417,,-76.26491,0596,TIDEWATER & BOURBON,0
36.87188,,-76.26575,0597,TIDEWATER & SHOOP,0
36.87713,,-76.26381,0594,TIDEWATER & LAFAYETTE,0
36.87611,,-76.2642,0595,TIDEWATER & BELLEVUE,0
36.88373,,-76.26125,0592,TIDEWATER & ALSACE,0
36.88001,,-76.2627,0593,TIDEWATER & ASHLAND,0
36.888,,-76.25973,0590,TIDEWATER & BLANCH,0
36.88603,,-76.26038,0591,TIDEWATER & CROMWELL,0
37.06407,,-76.46889,3270,JEFFERSON & LANGLEY,0
36.86774,,-76.26847,0599,TIDEWATER & VISTA,0
36.89791,,-76.27989,0178,GRANBY & KINGSLEY,0
36.89532,,-76.27948,0179,GRANBY & BELVEDERE,0
37.03612,,-76.30059,2299,MALLORY & RUST,0
37.03443,,-76.30314,2298,MALLORY & DARBY,0
36.91269,,-76.2737,0170,GRANBY & NORTH SHORE,0
36.90897,,-76.2753,0171,GRANBY & WARREN,0
36.90825,,-76.27561,0172,GRANBY & FIFE,0
36.90637,,-76.27643,0173,GRANBY & THOLE,0
36.90477,,-76.27712,0174,GRANBY & BRACKENRIDGE,0
36.90301,,-76.27788,0175,GRANBY & OAK GROVE,0
36.90151,,-76.27853,0176,GRANBY & TALBOT HALL,0
36.90059,,-76.27893,0177,GRANBY & WHITING,0
37.01337,,-76.4171,2569,BRIARFIELD & POTOMAC,0
37.01243,,-76.41986,2568,BRIARFIELD & OLD CHESTNUT,0
36.85526,,-76.23656,0689,VIRGINIA BEACH & KINGWOOD,0
36.99466,,-76.42584,2561,MADISON & 44TH,0
36.99337,,-76.42502,2560,MADISON & 42ND,0
36.99721,,-76.4274,2563,MADISON & 48TH,0
36.99593,,-76.42662,2562,MADISON & 46TH,0
37.00954,,-76.42658,2565,BRIARFIELD & ORCUTT,0
36.99825,,-76.42489,2564,48TH & MARSHALL,0
37.01144,,-76.42186,2567,BRIARFIELD & CHESTNUT,0
37.01041,,-76.42439,2566,BRIARFIELD & ROANOKE,0
36.88707,,-76.23677,0772,SEWELLS POINT & NORVELLA,0
36.8022,,-76.18464,0773,INDIAN RIVER & CHURCH,0
36.88236,,-76.2339,0770,SEWELLS POINT & ELMHURST,0
36.88568,,-76.23578,0771,SEWELLS POINT & TEXAS,0
36.7962,,-76.17346,0776,INDIAN RIVER & KEMPSVILLE,0
36.89394,,-76.239,0774,SEWELLS POINT & STRAND,0
36.80128,,-76.17797,0775,KEMPSRIVER & FORDHAM,0
36.99752,,-76.40612,2367,SHELL & PARRISH,0
36.99873,,-76.40481,2366,SHELL & MAPLE,0
36.79223,,-76.16392,0778,INDIAN LAKES & HALIFAX,0
36.78754,,-76.16274,0779,INDIAN RIVER & STOCKTON,0
37.00481,,-76.39769,2363,PEMBROKE & CHILDS,0
37.0064,,-76.39525,2362,PEMBROKE & PLUM,0
37.00849,,-76.3917,2361,G & PEMBROKE,0
37.0065,,-76.39021,2360,G & FINLAND,0
36.89984,,-76.06582,5029,GREAT NECK & ADAM KEELING,0
36.84645,,-76.28593,0006,SAINT PAULS & PLUME,0
36.84542,,-76.28678,0007,SAINT PAULS & MAIN,0
37.03909,,-76.40979,2583,ABERDEEN & TODDS,0
36.85192,,-76.28732,0001,CHARLOTTE & MONTICELLO,0
37.03186,,-76.40572,2581,ABERDEEN & WEAVER,0
36.85155,,-76.28542,0003,SAINT PAULS & CHARLOTTE,0
36.82031,,-76.06686,5020,LYNNHAVEN & AVENGER,0
36.84463,,-76.28958,0008,WATERSIDE & COMMERCIAL,0
36.76281,,-76.28861,1861,BAINBRIDGE & OUTLAW,0
36.75723,,-76.28037,1860,LIBERTYVILLE & CHANNEL,0
36.77298,,-76.28702,1863,BAINBRIDGE & MCCLOUD,0
36.7694,,-76.28845,1862,BAINBRIDGE & GREAT BRIDGE,0
36.78556,,-76.282,1865,BAINBRIDGE & BURROW,0
36.78049,,-76.28403,1864,BAINBRIDGE & YAGER,0
36.79283,,-76.27908,1867,BAINBRIDGE & FRANKLIN,0
36.79005,,-76.28022,1866,BAINBRIDGE & ROSEMONT,0
36.80526,,-76.27634,1869,BAINBRIDGE & CHESAPEAKE,0
37.09193,,-76.44725,3207,DAPHIA & SAINT EGNATIOS,0
37.02309,,-76.4271,2109,79TH & CHESTNUT,0
37.02142,,-76.43129,2108,79TH & ROANOKE,0
37.01529,,-76.44878,2103,WARWICK & REBEL,0
37.01438,,-76.4485,2102,75TH & WARWICK,0
37.0132,,-76.45134,2101,75TH & RIVER,0
37.0119,,-76.44946,2100,73RD & BELVEDERE,0
37.02058,,-76.43338,2107,79TH & ORCUTT,0
37.01915,,-76.43703,2106,79TH & MARSHALL,0
37.01977,,-76.43811,2105,MARSHALL & 80TH,0
37.02024,,-76.4427,2104,MERCURY & JEFFERSON,0
37.04669,,-76.47342,2639,WARWICK & LOGAN,0
37.04523,,-76.47347,2638,WARWICK & JONES,0
37.03965,,-76.46863,2635,WARWICK & RIDGEWAY,0
37.03759,,-76.46708,2634,WARWICK & JAMES RIVER,0
36.87337,,-76.25263,2637,HANBURY & BALLENTINE,0
37.04223,,-76.47198,2636,WARWICK & ELM,0
37.03356,,-76.46219,2631,WARWICK & POST,0
37.03269,,-76.46069,2630,WARWICK & MAIN,0
37.03627,,-76.46575,2633,WARWICK & SHIRLEY,0
37.03461,,-76.46353,2632,WARWICK & HARRISON,0
36.80073,,-76.1305,1537,PRINCESS ANNE & BRANTINGHAM,0
36.90239,,-76.27782,0032,GRANBY & SIR OLIVER,0
36.841,,-76.13319,1243,COLUMBUS & MARKET,0
37.10784,,-76.515,2741,WARWICK & MENCHVILLE 2,0
37.11075,,-76.51711,2740,WARWICK & MENCHVILLE 1,0
37.10541,,-76.50728,2743,NETTLES & OYSTER POINT,0
37.10471,,-76.51013,2742,OYSTER POINT & WARWICK,0
37.10146,,-76.50301,2745,NETTLES & WENDWOOD,0
37.10323,,-76.50497,2744,NETTLES & POINTER,0
37.08964,,-76.49607,2747,NETTLES & SANDPEBBLE 1,0
37.10022,,-76.50075,2746,NETTLES & CLAIBORNE,0
37.0868,,-76.49693,2749,NETTLES & LACKEY,0
37.08875,,-76.49627,2748,NETTLES & SANDPEBBLE 2,0
37.0217,,-76.35244,2039,KECOUGHTAN & NEWPORT NEWS,0
37.02031,,-76.35253,2038,KECOUGHTAN & VICTORIA,0
36.93783,,-76.26232,0043,GRANBY & WESTMONT,0
36.80531,,-76.25567,1247,CAMPOSTELLA & HUNTERDALE,0
36.94595,,-76.3243,8869,MORRIS & VIRGINIA,0
37.08827,,-76.48346,3095,JEFFERSON & MIDDLE GROUND 1,0
36.84939,,-76.20319,5198,POPLAR HALL & FRIZZELL,0
37.01689,,-76.44287,3234,JEFFERSON & 79TH,0
37.02223,,-76.44611,3235,JEFFERSON & MORRIS,0
36.80813,,-76.13515,1538,PRINCESS ANNE & CAMBELTON,0
37.02757,,-76.44942,3238,JEFFERSON & CENTER,0
37.0588,,-76.34468,2965,LITTLE BACK RIVER & CLOVER,0
37.06024,,-76.34381,2964,LITTLE BACK RIVER & GLENWOOD,0
37.056,,-76.34564,2967,LITTLE BACK RIVER & PRESTON,0
37.05695,,-76.34536,2966,LITTLE BACK RIVER & LAMINGTON,0
37.05542,,-76.33263,2961,CLEMWOOD & GUILDFORD,0
37.06052,,-76.33842,2963,CLEMWOOD & FORUM,0
37.05843,,-76.33624,2962,CLEMWOOD & APOLLO,0
36.79428,,-76.32799,1780,GEORGE WASHINGTON & VICTORY,0
36.79059,,-76.33062,1781,GEORGE WASHINGTON & WINTERGREEN,0
37.04847,,-76.34777,2969,KING & ROLAND,0
36.84825,,-76.25033,2968,BALLENTINE & LAKEBRIDGE,0
36.78474,,-76.35115,1786,AARON & GAUNTLET,0
36.78432,,-76.35414,1787,AARON & SIR GALAHAD,0
37.04311,,-76.43706,3049,TODDS & LUNDY,0
37.04302,,-76.43898,3048,TODDS & WELLINGTON,0
37.02286,,-76.43465,3041,ORCUTT & 81ST,0
37.02279,,-76.41772,3040,LASSITER & JUANITA,0
37.03267,,-76.43984,3043,ORCUTT & GOLDSBORO,0
37.03029,,-76.43866,3042,ORCUTT & ANDOVER,0
37.03792,,-76.44076,3045,ORCUTT & SHARPLEY,0
37.0349,,-76.44071,3044,ORCUTT & FRIENDLY,0
37.0427,,-76.44129,3047,ORCUTT & TODDS,0
37.04081,,-76.44095,3046,ORCUTT & BARRINGTON,0
36.84079,,-76.05911,1078,VIRGINIA BEACH & LYNNRIVER,0
36.84132,,-76.05542,1079,VIRGINIA BEACH & PARKER,0
36.84283,,-76.06689,1076,VIRGINIA BEACH & FOUNDRY,0
36.84088,,-76.06159,1077,VIRGINIA BEACH & EUREKA,0
36.85144,,-76.13679,0104,INDEPENDENCE & HINSDALE (far side),0
36.84384,,-76.06983,1075,VIRGINIA BEACH & YORKTOWN,0
36.84213,,-76.08522,1072,VIRGINIA BEACH & GROVELAND,0
36.84343,,-76.07623,1073,VIRGINIA BEACH & KINGS GRANT,0
36.84126,,-76.09115,1070,VIRGINIA BEACH & PLAZA TRAIL,0
36.84164,,-76.08856,1071,VIRGINIA BEACH & KING RICHARD,0
36.8471,,-75.97627,1094,19TH & PACIFIC,0
36.84488,,-75.97751,1096,ARCTIC & VIRGINIA BEACH,0
36.84409,,-75.98164,1097,VIRGINIA BEACH & MEDITERRANEAN,0
36.84273,,-75.98897,1090,VIRGINIA BEACH & 2ND,0
36.84341,,-75.98497,1091,VIRGINIA BEACH & PARKS,0
36.84373,,-75.98315,1092,VIRGINIA BEACH & CYPRESS,0
36.84438,,-75.97937,1093,VIRGINIA BEACH & BALTIC,0
36.90396,,-76.13146,0107,SHORE & WINDWARD,0
36.84286,,-75.98877,1098,VIRGINIA BEACH & JEFFERSON,0
36.84258,,-75.99032,1099,VIRGINIA BEACH & ANCHORAGE,0
37.0899,,-76.43523,3135,SAUNDERS & BETZ,0
37.08849,,-76.43147,3134,SAUNDERS & QUARTER PATH,0
37.09333,,-76.44562,3137,DAPHIA & SAUNDERS 1,0
37.09122,,-76.43977,3136,SAUNDERS & KINGWOOD,0
37.07753,,-76.42573,3131,BIG BETHEL & COMPTON,0
37.07042,,-76.42702,3130,BIG BETHEL & BATTLE,0
37.08783,,-76.42516,3133,SAUNDERS & BIG BETHEL,0
37.07902,,-76.42546,3132,BIG BETHEL & TUPELO,0
37.09188,,-76.447,3139,DAPHIA & SAINT EGNATIOS,0
37.0922,,-76.44565,3138,DAPHIA & SAUNDERS 2,0
36.84702,,-76.12976,0106,CORPORATION & CONSTITUTION,0
36.8632,,-76.02789,1418,FIRST COLONIAL & WILL O WISP,0
36.92721,,-76.00954,1419,NEW GUINEA & ATLANTIC,0
36.82586,,-76.29932,2559,PORT CENTRE & LINCOLN,0
36.80569,,-76.08034,1410,LYNNHAVEN & LAMPLIGHT,0
36.79832,,-76.08689,1411,LYNNHAVEN & HOLLAND,0
36.79657,,-76.08831,1412,LYNNHAVEN & CRIMSON HOLLY,0
36.79715,,-76.09854,1413,ROSEMONT & MOUNTAIN,0
36.7994,,-76.09892,1414,ROSEMONT & SHAWN,0
36.80596,,-76.10033,1415,ROSEMONT & STONESHORE,0
36.80909,,-76.09942,1416,ROSEMONT & WILLOW LAKE,0
36.81192,,-76.09816,1417,ROSEMONT & HOLLAND,0
36.88393,,-76.18229,1322,NORTHAMPTON & BAKER (far side),0
36.89166,,-76.17156,1323,NORTHAMPTON & BAYSIDE,0
36.87784,,-76.19192,1320,NORTHAMPTON & WESLEYAN,0
36.88077,,-76.18714,1321,NORTHAMPTON & BURTON STATION,0
36.86792,,-76.13303,0101,INDEPENDENCE & WITCHDUCK,0
36.88662,,-76.17972,1327,NORTHAMPTON & DIAMOND SPRINGS,0
36.89535,,-76.15526,1324,NORTHAMPTON & SHELL (mid block),0
36.89478,,-76.1579,1325,NORTHAMPTON & JACK FROST,0
36.88438,,-76.18221,1328,NORTHAMPTON & BAKER (near side),0
36.88321,,-76.18403,1329,NORTHAMPTON & BAKER (far side),0
36.87841,,-76.40094,5180,HOFFLERS CREEK & PEACHTREE,0
36.72484,,-76.29567,5768,CEDAR & CAHOON,0
36.86794,,-76.298,5769,COLLEY & SHIRLEY,0
36.72676,,-76.30311,5766,DOMINION & CEDAR,0
36.85931,,-76.30114,5767,COLLEY & PEMBROKE,0
36.74269,,-76.25935,5764,RIVER WALK & WILLOW POINT,0
36.73887,,-76.25119,5765,GREAT BRIDGE & PRESERVATION REACH,0
36.84372,,-76.28764,5762,WATER & WATERSIDE,0
36.74734,,-76.26736,5763,RIVER WALK & GREAT BRIDGE,0
36.75282,,-76.0645,5760,GEORGE MASON & JUDICIAL,0
36.86942,,-76.29719,5761,COLLEY & GATES,0
36.85245,,-76.27553,0603,TIDEWATER & ROSWELL,0
36.87602,,-76.40149,5181,PEACHTREE & AUGUSTINE,0
37.03559,,-76.35191,5562,RIP RAP & MASON,0
37.02781,,-76.36202,5563,PEMBROKE & PARKDALE,0
36.88247,,-75.98597,1256,ATLANTIC & 56TH,0
36.88413,,-75.9865,1257,ATLANTIC & 58TH,0
36.87285,,-75.98297,1254,ATLANTIC & 45TH,0
36.75297,,-76.05594,1527,PRINCESS ANNE & DEGRASSE,0
36.87079,,-75.98235,1252,ATLANTIC & 42ND,0
36.87122,,-75.98248,1253,ATLANTIC & 43RD,0
36.83366,,-75.97241,1250,PACIFIC & WINSTON SALEM,0
36.87031,,-75.98221,1251,PACIFIC & CAVALIER,0
36.77836,,-76.09522,1529,PRINCESS ANNE & DAM NECK,0
36.88636,,-75.98718,1258,ATLANTIC & 61ST,0
36.88941,,-75.98815,1259,ATLANTIC & 64TH,0
36.84779,,-76.27742,0604,TIDEWATER & CHARLOTTE,0
36.96518,,-76.27244,0605,OCEAN VIEW & 8TH VIEW,0
36.8791,,-76.22575,0905,ROBIN HOOD & AZALEA,0
36.87919,,-76.22691,0904,AZALEA GARDEN & ROBIN HOOD,0
36.88002,,-76.22137,0907,ROBIN HOOD & AYLIFF,0
36.87977,,-76.22257,0906,ROBIN HOOD & ELTHAM,0
36.88555,,-76.22279,0901,AZALEA GARDEN & WINDERMERE,0
36.88795,,-76.22128,0900,AZALEA GARDEN & IOWA,0
36.88126,,-76.22555,0903,AZALEA GARDEN & BEAMON,0
36.88383,,-76.22392,0902,AZALEA GARDEN & KENNEBECK,0
36.88137,,-76.21707,0909,ROBIN HOOD & ALMEDA,0
36.88065,,-76.21884,0908,ROBIN HOOD & ELLSMERE,0
37.02579,,-76.34981,3343,ARMISTEAD & QUEEN,0
36.95777,,-76.25638,0609,OCEAN VIEW & MASON CREEK,0
36.74337,,-76.24388,5705,BATTLEFIELD & WIMBLEDON,0
36.86605,,-76.21093,5706,MILITARY & LAKE HERBERT,0
37.12485,,-76.51398,3340,CHATHAM & BOYKIN,0
36.75406,,-76.03369,5010,PRINCESS ANNE & SEABOARD,0
36.88411,,-76.13439,5707,INDEPENDENCE & EWELL,0
36.75399,,-76.03393,5011,PRINCESS ANNE & SEABOARD,0
36.7911,,-76.23372,5700,OLD GREENBRIER & WOODLAKE,0
36.85818,,-76.29492,5701,OLNEY & MOWBRAY,0
37.05835,,-76.42744,3057,BIG BETHEL & VILLAGE,0
37.12317,,-76.50969,3341,CHATHAM & HABERSHAM,0
36.94192,,-76.24584,0343,CHESAPEAKE & LEICESTER,0
37.03024,,-76.41285,2076,WEAVER & HICKORY HILL,0
36.94728,,-76.3182,5185,GILBERT & BACON,0
36.93405,,-76.24461,0347,CHESAPEAKE & BAYVIEW,0
36.93574,,-76.24489,0346,CHESAPEAKE & EARL,0
36.93682,,-76.24507,0345,CHESAPEAKE & DUNE,0
36.93897,,-76.24535,0344,CHESAPEAKE & FARRELL,0
37.04263,,-76.43001,3052,TODDS & OLD BIG BETHEL,0
36.92397,,-76.24307,0349,CHESAPEAKE & SHEPPARD,0
36.8484,,-76.02151,1105,FIRST COLONIAL & DONNA,0
37.04258,,-76.42784,3053,BIG BETHEL & TODDS,0
36.85406,,-76.02372,5784,FIRST COLONIAL & CHANTILLY,0
36.90707,,-76.11047,5785,SHORE & MARLIN BAY,0
36.90761,,-76.08571,5786,SHORE & VISTA,0
36.91565,,-76.25124,0582,LITTLE CREEK RD & OLD OCEAN VIEW,0
36.85536,,-76.17734,5780,NEWTOWN & VIRGINIA BEACH,0
36.85535,,-76.17755,5781,NEWTOWN & VIRGINIA BEACH,0
36.85352,,-76.02288,5782,FIRST COLONIAL & LAUREL,0
36.85546,,-76.02517,5783,FIRST COLONIAL & WOLFSNARE,0
36.89106,,-76.25854,0589,TIDEWATER & NORVIEW,0
36.89382,,-76.25743,0588,TIDEWATER & ROLAND,0
37.04286,,-76.43309,3051,TODDS & WHEALTON,0
36.91556,,-76.27273,0169,GRANBY & LITTLE CREEK,0
36.92219,,-76.26982,0168,GRANBY & CEMETARY,0
36.94252,,-76.26033,0163,GRANBY & OCEAN,0
36.94301,,-76.26017,0162,GRANBY & LEICESTER,0
36.94912,,-76.25573,0161,GRANBY & CHERRY,0
36.9503,,-76.25441,0160,GRANBY & GOVERNMENT,0
36.92511,,-76.26904,0167,GRANBY & I-64 EAST,0
36.93489,,-76.26435,0166,GRANBY & EVANS,0
36.93764,,-76.26281,0165,GRANBY & WESTMONT,0
36.93957,,-76.26172,0164,GRANBY & CHESTER,0
37.02977,,-76.45791,2777,WARWICK & RALEIGH,0
36.91613,,-76.22614,0551,LITTLE CREEK & WEDGEWOOD 1,0
37.00426,,-76.38871,2358,SHELL & DAY,0
37.00506,,-76.38972,2359,G & MIMOSA,0
36.81055,,-76.20911,0769,PROVIDENCE & AMHERST,0
36.80775,,-76.21608,0768,AUBURN & COLLEGE PARK,0
37.02564,,-76.3249,2227,WOODLAND & OLD BUCKROE,0
37.01064,,-76.37697,2352,SHELL & CELEY,0
37.00973,,-76.3784,2353,SHELL & WINONA (Shell Apts),0
36.80886,,-76.21805,0767,AUBURN & MILITARY,0
37.01196,,-76.37486,2351,SHELL & GARY,0
37.00611,,-76.38415,2356,SHELL & MARYLAND,0
37.00522,,-76.38559,2357,SHELL & KENTUCKY,0
37.0085,,-76.38034,2354,SHELL & POWHATAN,0
37.00724,,-76.3824,2355,SHELL & DALE,0
36.87037,,-76.28147,0017,26TH & ARMISTEAD,0
36.86689,,-76.28412,0016,MONTICELLO & 21ST,0
36.86517,,-76.28484,0015,MONTICELLO & 18TH,0
36.86285,,-76.28581,0014,MONTICELLO & 15TH,0
36.85853,,-76.28707,0012,MONTICELLO & VIRGINIA BEACH,0
36.85478,,-76.28709,0011,MONTICELLO & BRAMBLETON (Radisson),0
36.87289,,-76.28145,0018,MONTICELLO & 29TH,0
37.03605,,-76.34732,2136,KING & KEMPTON,0
37.02959,,-76.34539,2137,KING & PEMBROKE,0
37.04154,,-76.34848,2134,KING & LANGLEY,0
37.03962,,-76.34832,2135,KING & RIP RAP,0
37.03594,,-76.36653,2132,LAKE HAMPTON & NEW MARKET CREEK,0
37.0354,,-76.36275,2133,LASALLE & ARMISTEAD,0
37.04066,,-76.37704,2130,PINE CHAPEL & ARMISTEAD,0
37.03915,,-76.37299,2131,ARMISTEAD & FINDLEY,0
36.88801,,-76.24158,0367,CHESAPEAKE & CRAVEN,0
36.85518,,-76.1984,2138,VIRGINIA BEACH & POPLAR HALL,0
36.85333,,-76.2481,2139,BALLENTINE & VIRGINIA BEACH,0
37.06653,,-76.49185,2648,WARWICK & UNIVERSITY,0
36.88254,,-76.42605,5161,COLLEGE & LAKE VIEW,0
36.88139,,-76.4256,5162,COLLEGE & LAKE VIEW,0
36.86378,,-76.39664,5167,VILLAGE & CHURCHLAND,0
37.04907,,-76.47469,2640,WARWICK & HARPERSVILLE,0
37.05222,,-76.47817,2641,WARWICK & COPELAND,0
37.05356,,-76.47958,2642,WARWICK & FONTAINE,0
37.05567,,-76.48128,2643,WARWICK & MATTHEW,0
37.05754,,-76.48271,2644,WARWICK & GATEWOOD,0
36.82179,,-76.29694,2645,PORT CENTRE & PREMIER PLACE,0
37.06416,,-76.48989,2647,WARWICK & SWEETBRIAR,0
36.81194,,-76.25142,9219,FIRESIDE & STALHAM,0
36.8121,,-76.25169,9217,FIRESIDE & PARKSIDE,0
36.93193,,-76.20101,0074,OCEAN VIEW & 14TH BAY,0
36.97856,,-76.43093,2002,WASHINGTON & 26TH,0
36.97816,,-76.42932,2003,25TH & HUNTINGTON,0
36.98347,,-76.43402,2000,NEWPORT NEWS TRANSFER CENTER,0
36.98058,,-76.43218,2001,WASHINGTON & 29TH,0
36.98353,,-76.41577,2006,25TH & MARSHALL,0
36.98461,,-76.41305,2007,25TH & WICKHAM,0
36.98163,,-76.42055,2004,25TH & JEFFERSON,0
36.98245,,-76.41848,2005,25TH & MADISON,0
36.98521,,-76.41152,2008,25TH & ORCUTT,0
36.98639,,-76.40858,2009,25TH & ROANOKE,0
36.85202,,-76.24809,9235,BALLENTINE & VIRGINIA BEACH,0
36.84165,,-76.25057,3026,KIMBALL & COURT 1,0
37.05659,,-76.32749,2910,FOX HILL & WILLOW OAKS,0
37.05821,,-76.32229,2911,FOX HILL & BONAIRE,0
37.05901,,-76.31766,2912,FOX HILL & WOODLAND,0
37.05654,,-76.31174,2913,FOX HILL & NICKERSON,0
37.05703,,-76.30866,2914,FOX HILL & EAGLES,0
37.05862,,-76.30451,2915,FOX HILL & ROSSER,0
37.05944,,-76.30063,2916,FOX HILL & OLD BUCKROE,0
37.05628,,-76.30101,2917,OLD BUCKROE & RANALET,0
37.05482,,-76.30097,2918,OLD BUCKROE & SESCO,0
37.05153,,-76.30045,2919,OLD BUCKROE & ANDREWS,0
36.77943,,-76.35063,1791,GUENEVERE & SIR MELIOT,0
36.77884,,-76.35738,1790,SIR LANCELOT & MOAT,0
36.77391,,-76.32465,1795,CANAL & BROADMOOR,0
36.78143,,-76.34521,1794,CAMELOT & CASTLE,0
36.8475,,-76.27722,3024,TIDEWATER & MAY,0
37.03417,,-76.40035,2071,WEAVER & ROXBURY,0
36.84068,,-76.09512,1069,VIRGINIA BEACH & MALIBU,0
36.84048,,-76.09655,1068,VIRGINIA BEACH & ROSEMONT,0
36.84321,,-76.12141,1061,VIRGINIA BEACH & THALIA,0
36.84226,,-76.11587,1063,VIRGINIA BEACH & THALIA STATION,0
36.84316,,-76.11916,1062,VIRGINIA BEACH & ASH,0
36.83985,,-76.10824,1065,VIRGINIA BEACH & LYNN SHORES,0
36.84069,,-76.11145,1064,VIRGINIA BEACH & KENTUCKY,0
36.83976,,-76.10359,1067,VIRGINIA BEACH & STRIP MALL,0
36.83979,,-76.10584,1066,VIRGINIA BEACH & CAREN,0
36.80115,,-76.18207,0804,INDIAN RIVER & THOMPKINS,0
36.80202,,-76.18385,0805,INDIAN RIVER & FENTON,0
36.84377,,-75.98351,1525,VIRGINIA BEACH & CYPRESS,0
36.87556,,-76.25302,0374,CHESAPEAKE & FLANDERS,0
36.84271,,-76.0122,1087,VIRGINIA BEACH & OCEANA,0
36.84818,,-76.0217,1086,FIRST COLONIAL & DONNA,0
36.84992,,-76.02211,1085,FIRST COLONIAL & LASKIN,0
36.84956,,-76.02724,1084,LASKIN & REPUBLIC,0
36.84928,,-76.02866,1083,LASKIN & VILLAGE,0
36.84822,,-76.03322,1082,LASKIN & REGENCY,0
36.84172,,-76.05255,1080,VIRGINIA BEACH & BYRD,0
36.87877,,-76.24968,0372,CHESAPEAKE & ROBIN HOOD,0
36.79562,,-76.3305,1565,VICTORY & PUEBLO,0
36.84225,,-75.99163,1089,VIRGINIA BEACH & SEABRIDGE,0
36.84188,,-75.99383,1088,VIRGINIA BEACH & BIRCH LAKE,0
37.09011,,-76.44726,3140,SAINT EGNATIOS & DAPHIA,0
37.08922,,-76.4472,3141,SAINT EGNATIOS & ROUVALIS 1,0
37.08948,,-76.4471,3142,SAINT EGNATIOS & ROUVALIS 2,0
37.09224,,-76.4474,3143,DAPHIA & SAINT EGNATIOS,0
37.09345,,-76.44756,3144,DAPHIA & SAUNDERS 3,0
37.09424,,-76.44766,3145,DAPHIA & SAUNDERS 4,0
37.09521,,-76.44963,3146,SAUNDERS & HARPERSVILLE,0
37.09713,,-76.45398,3147,HARPERSVILLE & BAYBERRY,0
37.09808,,-76.4577,3148,HARPERSVILLE & J CLYDE MORRIS,0
37.09715,,-76.4592,3149,J CLYDE MORRIS & HARPERSVILLE,0
36.79383,,-76.40112,1904,AIRLINE & QUAILSHIRE,0
36.80151,,-76.17802,0803,KEMPSRIVER & FORDHAM,0
37.09516,,-76.46764,3387,MIDDLE GROUND & ROCK LANDING,0
36.83512,,-76.31213,3384,HIGH & PRIMROSE,0
36.83481,,-76.32545,3385,HIGH & CONSTITUTION,0
37.17575,,-76.56982,3382,WARWICK & DOZIER,0
36.83469,,-76.32568,3383,HIGH & CONSTITUTION,0
37.19141,,-76.57153,3380,WARWICK & RIPLEY,0
37.18112,,-76.57021,3381,WARWICK & ENTERPRISE,0
37.09446,,-76.46722,3388,ROCK LANDING & MIDDLE GROUND,0
37.09278,,-76.46635,3389,ROCK LANDING & BLUECRAB,0
36.80961,,-76.07395,1409,LYNNHAVEN & MAPLETON,0
36.81039,,-76.07279,1408,LYNNHAVEN & S LYNNHAVEN (FAR),0
36.82721,,-76.24623,0453,INDIAN RIVER & WINGFIELD,0
36.87232,,-76.03112,1403,MILL DAM & THUNDERBIRD,0
36.87462,,-76.03078,1402,MILL DAM & SANDEE,0
36.87905,,-76.04079,1400,MILL DAM & VICTORIAN,0
36.82872,,-76.06739,1407,LYNNHAVEN & VIKING,0
36.83835,,-76.06515,1406,LYNNHAVEN & SOUTHERN,0
36.86628,,-76.02953,1404,FIRST COLONIAL & BANCROFT HALL,0
36.94148,,-76.23051,0143,OCEAN VIEW & WILLOW,0
36.8799,,-76.22238,1338,ROBIN HOOD & ELTHAM,0
36.86218,,-76.17728,1335,BAKER & HAMPSHIRE,0
36.8648,,-76.17897,1334,BAKER & LAKE EDWARD,0
36.85801,,-76.17651,1337,NEWTOWN & LAKE EDWARD,0
36.86113,,-76.17653,1336,BAKER & HAMPSHIRE (far side),0
36.88077,,-76.18775,1330,NORTHAMPTON & BURTON STATION,0
36.86972,,-76.18111,1333,BAKER & CAMPUS,0
36.87283,,-76.18649,1332,WESLEYAN & COLLEGE,0
36.86398,,-76.3011,5779,REDGATE & CHILDRENS WAY,0
36.72608,,-76.29809,5778,CEDAR & DOMINION,0
36.8471,,-76.18592,3129,NORTH CENTER & CENTER,0
36.88216,,-76.29478,5771,COLLEY & 41ST,0
36.86933,,-76.29711,5770,COLLEY & WASHINGTON PARK,0
36.75184,,-76.0626,5773,GEORGE MASON & JAMES MADISON,0
36.89147,,-76.30063,5772,BOLLING & ALSON,0
36.74091,,-76.25493,5775,GREAT BRIDGE & TIGER,0
36.73899,,-76.25121,5774,GREAT BRIDGE & PRESERVATION REACH,0
36.74081,,-76.25498,5777,GREAT BRIDGE & TIGER,0
36.74542,,-76.26033,5776,GREAT BRIDGE & BETTES WAY,0
37.09696,,-76.45889,3201,J CLYDE MORRIS & HARPERSVILLE,0
37.02254,,-76.39321,3092,BRIARFIELD & GARRETT,0
37.02347,,-76.39204,3093,BRIARFIELD & HANKINS,0
37.0194,,-76.3983,3090,BRIARFIELD & NORTHWOOD,0
37.02085,,-76.39528,3091,BRIARFIELD & PICKETT,0
37.10373,,-76.48074,3096,CANON & SYMANTEC,0
36.82075,,-76.12567,3097,COMMUTER & INDEPENDENCE,0
37.02491,,-76.39023,3094,BRIARFIELD & WARD,0
36.80005,,-76.36466,3123,GREENWOOD & CLAY,0
36.80361,,-76.26326,1249,ATLANTIC & NARROW,0
36.80698,,-76.25584,1248,CAMPOSTELLA & ARBOR GLEN,0
36.7922,,-76.08088,3098,HOLLAND & SHIPPS CORNER,0
36.80016,,-76.0858,3099,HOLLAND & LYNNHAVEN,0
36.81085,,-76.13843,1539,PRINCESS ANNE & TIMBERLAKE,0
37.06179,,-76.49222,3264,UNIVERSITY & SHOE (CNU),0
36.79301,,-76.3644,9423,ROOSEVELT & VAUGHN,0
36.9163,,-76.28769,0970,LITTLE CREEK & GRANTHAM,0
36.91622,,-76.29218,0971,LITTLE CREEK & MOUNT PLEASANT,0
36.91618,,-76.29486,0972,LITTLE CREEK & DIVEN,0
36.91616,,-76.2963,0973,LITTLE CREEK & TAPLEY 1,0
36.91615,,-76.29752,0974,LITTLE CREEK & TAPLEY 2,0
36.91595,,-76.30073,0975,LITTLE CREEK & DUNFIELD,0
36.91586,,-76.30233,0976,LITTLE CREEK & CORTLANDT,0
36.91613,,-76.30711,0978,LITTLE CREEK & HAMPTON,0
36.82455,,-76.26889,0979,WILSON & WADE,0
36.82071,,-76.34608,3125,TURNPIKE & RODMAN,0
36.75956,,-76.02089,1523,PRINCESS ANNE & GENERAL BOOTH,0
36.9534,,-76.31995,3899,MARYLAND & BUNKER HILL,0
36.83223,,-76.30688,1634,EFFINGHAM & SOUTH,0
36.94752,,-76.31375,3892,GILBERT & FARRAGUT 1,0
36.94785,,-76.30757,3893,GILBERT & BAINBRIDGE,0
36.9514,,-76.32795,3890,DECATUR & DILLINGHAM,0
36.94717,,-76.32286,3891,VIRGINIA & GILBERT,0
36.94636,,-76.26752,3894,FIRST VIEW & BURGOYNE,0
36.81257,,-76.05681,1468,INTERNATIONAL & LILLIAN VERNON,0
36.78646,,-76.25598,0488,ROBERT HALL & MILITARY,0
36.78735,,-76.25779,0489,ROBERT HALL & BATTLEFIELD,0
36.79459,,-76.25939,0480,CAMPOSTELLA & HEMPLE,0
36.79258,,-76.26,0481,CAMPOSTELLA & MARK,0
36.78517,,-76.26655,0482,CAMPOSTELLA & PORTLOCK,0
36.78187,,-76.26825,0483,CAMPOSTELLA & CORAL,0
36.77861,,-76.26652,0485,MILITARY & CAMPOSTELLA,0
36.78764,,-75.99826,1466,GENERAL BOOTH & DAM NECK,0
36.81024,,-76.20096,0808,INDIAN RIVER & REON,0
36.81064,,-76.20945,0809,PROVIDENCE & AMHERST,0
36.87721,,-76.26127,0378,LAFAYETTE & DUNKIRK,0
36.87753,,-76.26251,0379,LAFAYETTE & SOMME,0
36.87604,,-76.25656,0376,LAFAYETTE & LENS,0
36.87649,,-76.2584,0377,LAFAYETTE & BREST,0
36.80299,,-76.1859,0806,INDIAN RIVER & GENERAL,0
36.87563,,-76.25484,0375,LAFAYETTE & MARNE,0
36.78552,,-76.15745,0800,LYNNHAVEN & BRIDLE CREEK,0
36.78805,,-76.16289,0801,INDIAN RIVER & WESTHAVEN,0
36.88311,,-76.24665,0370,CHESAPEAKE & NORLAND,0
36.87995,,-76.24853,0371,CHESAPEAKE & NOTTAWAY,0
36.83355,,-76.30675,1636,EFFINGHAM & COUNTY,0
36.91582,,-76.23628,0579,LITTLE CREEK & MOOSE,0
36.91625,,-76.22587,0574,LITTLE CREEK & WEDGEWOOD PLAZA,0
36.91695,,-76.2296,0576,LITTLE CREEK & MEADOW CREEK,0
36.91683,,-76.23172,0577,LITTLE CREEK & BISON,0
36.91542,,-76.2123,0570,LITTLE CREEK & AZALEA GARDEN,0
36.91524,,-76.21546,0571,LITTLE CREEK & MONA,0
36.91523,,-76.21899,0572,LITTLE CREEK & HALPRIN 1,0
36.91548,,-76.22258,0573,LITTLE CREEK & WILDWOOD,0
36.87087,,-76.28236,0390,MONTICELLO & 26TH,0
36.84557,,-76.28922,0399,MAIN & COMMERCIAL,0
36.81621,,-76.10843,1454,HOLLAND & GOVERNORS,0
37.01776,,-76.36215,2345,LASALLE & MOORE,0
37.01965,,-76.36261,2344,SHELL & LASALLE,0
37.01362,,-76.36636,2347,VICTORIA & ALGONQUIN,0
37.015,,-76.36376,2346,VICTORIA & HOMESTEAD,0
36.85913,,-76.24941,2341,BALLENTINE & PRINCESS ANNE,0
37.04627,,-76.42983,3054,BIG BETHEL & OLD BIG BETHEL,0
37.0201,,-76.36189,2343,SHELL & WORSTER,0
37.02212,,-76.35852,2342,NEWPORT NEWS & ENGLAND,0
37.01398,,-76.37095,2349,HAMPTON ROADS & SHELL,0
37.01226,,-76.36886,2348,VICTORIA & ALLEGHANY,0
36.81628,,-76.11302,1455,HOLLAND & WINDSOR OAKS,0
36.85545,,-76.27605,0718,CHAPEL & VIRGINIA BEACH,0
36.9582,,-76.2567,0719,OCEAN VIEW & MASON CREEK,0
36.84922,,-76.26816,0711,PARK & BOND,0
36.84793,,-76.26937,0712,PARK & OLNEY,0
36.8471,,-76.27138,0713,BRAMBLETON & MARSHALL,0
36.85137,,-76.27747,0714,BRAMBLETON & ROSWELL,0
36.86903,,-76.30066,0211,HAMPTON & SPOTSWOOD,0
36.8537,,-76.28299,0716,BRAMBLETON & POSEY,0
36.88646,,-76.23647,0717,SEWELLS POINT & NORVELLA,0
36.88299,,-76.28159,0023,GRANBY & DELAWARE,0
36.87707,,-76.28177,0020,GRANBY & 33RD,0
36.87846,,-76.28198,0021,GRANBY & 35TH,0
36.89096,,-76.27881,0026,GRANBY & WILLOW WOOD,0
36.89272,,-76.27871,0027,GRANBY & ARDEN,0
36.88497,,-76.28129,0024,GRANBY & 42ND,0
36.89479,,-76.27907,0028,GRANBY & SEVERN,0
37.04213,,-76.40214,2067,CUNNINGHAM & SLOOP,0
36.81875,,-76.30879,1886,PORTSMOUTH & PEACH,0
36.81915,,-76.31126,1885,PORTSMOUTH & ELM,0
36.81933,,-76.31384,1884,PORTSMOUTH & OAK,0
36.81908,,-76.3155,1883,PORTSMOUTH & BEECH,0
36.81846,,-76.31859,1882,PORTSMOUTH & DES MOINES,0
37.02187,,-76.35296,2340,NEWPORT NEWS & KECOUGHTAN,0
37.03791,,-76.40014,2121,POWER PLANT & MERCURY,0
36.85049,,-76.26509,2120,CORPREW & MADISON,0
37.04188,,-76.40225,2123,CUNNINGHAM & WATERFORD,0
37.03971,,-76.40273,2122,TODDS & MERCURY,0
37.04665,,-76.39251,2125,CUNNINGHAM & CAREY,0
37.03306,,-76.33354,2228,PEMBROKE & HOLLY,0
37.04351,,-76.38973,2127,COLISEUM & MERCURY,0
37.04478,,-76.39009,2126,COLISEUM & MERCHANT,0
37.03864,,-76.38019,2129,PINE CHAPEL & FREEMAN,0
36.867,,-76.23371,2128,PRINCESS ANNE & AZALEA GARDEN,0
36.95202,,-76.25762,0156,FIRST VIEW & GOVERNMENT,0
37.01803,,-76.41316,3038,BIG BETHEL & BRIARFIELD,0
36.87259,,-76.23228,0626,SEWELLS POINT & WINTHROP,0
36.94723,,-76.26551,0155,FIRST VIEW & BEARDEN,0
36.85048,,-76.2571,0620,CORPREW & MAJESTIC,0
36.85026,,-76.24967,0621,CORPREW & WOLFERTON,0
36.84799,,-76.25156,0622,BALLENTINE & MIDDLE TOWNE,0
36.95145,,-76.25819,0151,FIRST VIEW & DUPRE,0
36.84278,,-76.2579,0628,KIMBALL & MAJESTIC,0
36.84235,,-76.25533,0629,KIMBALL & NORCHESTER,0
36.95391,,-76.25574,0158,FIRST VIEW & BALVIEW,0
36.95171,,-76.25281,0159,GRANBY & SEAVIEW,0
36.87497,,-76.40044,5173,GATEWAY & SUGAR CREEK,0
37.08717,,-76.4966,2659,NETTLES & LACKEY,0
37.0855,,-76.49767,2658,NETTLES & WINTERHAVEN,0
36.87763,,-76.40473,5177,PEACHTREE & GREENLEAF,0
36.81541,,-76.2488,9200,BORDER & STALHAM,0
36.87492,,-76.40403,5175,PEACHTREE & FRUITWOOD,0
36.87487,,-76.40043,5174,GATEWAY & SUGAR CREEK,0
37.07595,,-76.49443,2653,WARWICK & MIDDLESEX,0
37.07289,,-76.49332,2652,WARWICK & MINTON,0
37.0706,,-76.4929,2651,WARWICK & GLENDALE,0
37.06934,,-76.49287,2650,WARWICK & HIDEN,0
37.08308,,-76.49784,2657,WARWICK & TURLINGTON,0
37.08079,,-76.49721,2656,WARWICK & WHITES,0
37.08007,,-76.49687,2655,WARWICK & DEEP CREEK,0
37.07729,,-76.49506,2654,WARWICK & WELLESLEY,0
36.81171,,-76.09509,1451,HOLLAND & CHANTRY,0
36.99889,,-76.38795,2019,KECOUGHTAN & CLAREMONT,0
36.99798,,-76.38906,2018,KECOUGHTAN & HOLLYWOOD,0
36.99341,,-76.39447,2015,25TH & HICKORY,0
36.99275,,-76.39526,2014,25TH & PINE,0
36.99625,,-76.39113,2017,KECOUGHTAN & LOCUST,0
36.99453,,-76.39315,2016,KECOUGHTAN & PEAR,0
36.98938,,-76.40106,2011,25TH & PARISH,0
36.98827,,-76.40379,2010,25TH & OAK,0
36.992,,-76.39615,2013,25TH & MAPLE,0
36.99079,,-76.39756,2012,25TH & BUXTON,0
36.81254,,-76.09634,1452,HOLLAND & GARFIELD,0
36.87701,,-76.42046,5619,TOWNPOINT & RESPASS BEACH,0
36.87708,,-76.30192,0214,HAMPTON & 27TH,0
36.8345,,-76.3345,1591,HIGH & WATSON,0
36.8143,,-76.10139,1453,HOLLAND & CHIMNEY HILL,0
37.02376,,-76.39187,3034,BRIARFIELD & HANKINS,0
36.85351,,-76.28131,0715,BRAMBLETON & LINCOLN,0
36.82833,,-76.26641,0818,WILSON & CYPRESS,0
37.0295,,-76.35209,5613,PEMBROKE & WAVERLY,0
37.06057,,-76.3387,2903,CLEMWOOD & FORUM,0
37.06248,,-76.34082,2902,LITTLE BACK RIVER & CLEMWOOD,0
37.06073,,-76.34305,2901,LITTLE BACK RIVER & ROSEWOOD,0
36.83501,,-76.17829,5611,PRINCESS ANNE & HILL PRINCE,0
37.05397,,-76.33174,2907,CLEMWOOD & FOX HILL,0
37.05548,,-76.33289,2906,CLEMWOOD & GUILDFORD,0
37.05671,,-76.33434,2905,CLEMWOOD & CHICKAMAUGA,0
37.02239,,-76.39355,3035,BRIARFIELD & GARRETT,0
37.05556,,-76.32951,2909,FOX HILL & SYMS,0
37.05389,,-76.33142,2908,FOX HILL & CLEMWOOD,0
36.877,,-76.42008,5615,TOWNPOINT & RESPASS BEACH,0
36.88435,,-76.30232,0219,HAMPTON & 45TH,0
36.82477,,-76.23983,0816,INDIAN RIVER & SAINT LAWRENCE,0
36.80172,,-76.32319,1650,GEORGE WASHINGTON & CHANNING,0
36.90776,,-76.09727,1389,SHORE & STRATFORD,0
37.08363,,-76.46577,3153,DILIGENCE & THIMBLE SHOALS,0
37.08443,,-76.4629,3152,DILIGENCE & ROCK LANDING,0
37.08408,,-76.45595,3151,NEWPORT SQUARE,0
37.0948,,-76.45922,3150,J CLYDE MORRIS & TRAVERSE,0
37.07621,,-76.46941,3157,J CLYDE MORRIS & FORREST,0
37.0771,,-76.4672,3156,J CLYDE MORRIS & SHADWELL,0
37.07842,,-76.46403,3155,THIMBLE SHOALS & J CLYDE MORRIS,0
37.08089,,-76.4655,3154,THIMBLE SHOALS & GREAT OAK,0
37.15065,,-76.52962,2837,JEFFERSON & MCMORROW,0
37.02493,,-76.36233,2836,SETTLERS LANDING & LASALLE,0
37.07331,,-76.4766,3159,J CLYDE MORRIS & RUGBY,0
37.07553,,-76.47115,3158,J CLYDE MORRIS & WOODS,0
37.08875,,-76.46492,3391,OMNI & ROCK LANDING,0
37.08902,,-76.46438,3390,ROCK LANDING & OMNI,0
37.09031,,-76.47174,3393,CANON & BLUECRAB,0
37.08818,,-76.47042,3392,CANON & TOWN CENTER,0
37.09055,,-76.47945,3395,MIDDLE GROUND & FISHING POINT,0
37.09171,,-76.47656,3394,MIDDLE GROUND & TUGBOAT,0
36.82929,,-76.13554,1430,INDEPENDENCE & WICKLOW,0
37.12771,,-76.51177,3399,BLAND & JEFFERSON,0
37.12666,,-76.51395,3398,BLAND & CHATHAM,0
36.82897,,-76.30672,1637,EFFINGHAM & BRIGHTON,0
36.84034,,-76.13711,1340,INDEPENDENCE & COLUMBUS,0
36.82923,,-76.13587,1342,INDEPENDENCE & KEENER,0
36.8257,,-76.13039,1343,INDEPENDENCE & EDWIN,0
36.82166,,-76.12393,1344,HOLLAND & COMMUTER,0
36.81928,,-76.12013,1345,HOLLAND & S. PLAZA,0
36.95663,,-76.25421,1346,OCEAN VIEW & FIRST VIEW,0
36.95286,,-76.25679,0157,FIRST VIEW & D VIEW,0
36.95958,,-76.26102,0608,OCEAN VIEW & 4TH VIEW,0
36.8338,,-76.30244,5548,COUNTY & DINWIDDIE,0
36.83371,,-76.3024,5549,COUNTY & DINWIDDIE,0
36.83778,,-76.30693,5542,EFFINGHAM & FIREHOUSE,0
36.84114,,-76.30639,5546,CRAWFORD & EFFINGHAM,0
36.83893,,-76.30692,5547,EFFINGHAM & NORTH,0
36.84123,,-76.30635,5544,CRAWFORD & EFFINGHAM,0
36.84138,,-76.3099,5545,CRAWFORD & HATTON,0
36.82504,,-76.15776,1502,PRINCESS ANNE & KEMPSHIRE,0
36.94603,,-76.26853,0154,FIRST VIEW & BURGOYNE,0
36.84003,,-76.18285,1500,PRINCESS ANNE & CHEYENNE,0
36.83507,,-76.17854,1501,PRINCESS ANNE & HILL PRINCE,0
36.83072,,-76.26347,3089,INDIAN RIVER & ELKIN,0
37.01762,,-76.41298,3088,BIG BETHEL & BRIARFIELD,0
36.81506,,-76.14462,1504,PRINCESS ANNE & EDWIN,0
36.8104,,-76.13818,1505,PRINCESS ANNE & TIMBERLAKE,0
37.02268,,-76.41794,3085,LASSITER & JUANITA,0
37.0222,,-76.42075,3084,LASSITER & MARTHA LEE 2,0
37.02093,,-76.41487,3087,BIG BETHEL & JOYNES,0
36.81771,,-76.32221,1880,PORTSMOUTH & EVERGREEN (Pines),0
37.02641,,-76.43696,3081,ORCUTT & NET CENTER WAY,0
37.01698,,-76.44316,3083,JEFFERSON & 79TH,0
36.83085,,-76.2634,3082,INDIAN RIVER & ELKIN,0
36.91818,,-76.26171,0963,LITTLE CREEK & GALVESTON,0
36.91758,,-76.25855,0962,LITTLE CREEK & SIMONS,0
36.83049,,-76.26036,0961,INDIAN RIVER & CAMPOS,0
36.87161,,-76.23223,0960,SEWELLS POINT & DENVER,0
36.91559,,-76.27978,0967,LITTLE CREEK & NEWPORT,0
36.91513,,-76.27521,0966,LITTLE CREEK & VICTORY,0
36.91759,,-76.26977,0965,TAUSSIG & LITTLE CREEK,0
36.91774,,-76.26535,0964,LITTLE CREEK & GLEN,0
36.9162,,-76.28573,0969,LITTLE CREEK & RUTHVEN,0
36.91582,,-76.28201,0968,LITTLE CREEK & RESTMERE,0
36.84336,,-76.24919,3885,KIMBALL & WILEY 2,0
36.8444,,-76.24819,3884,WESTMINSTER & CHICK,0
36.94807,,-76.30583,3887,GILBERT & BAINBRIDGE,0
36.91626,,-76.29035,3881,LITTLE CREEK & ARMFIELD,0
36.90809,,-76.24025,3880,CHESAPEAKE & JOHNSTONS,0
36.7116,,-76.27532,3883,CEDAR & COUNTRY CLUB,0
36.84485,,-76.2519,3882,WESTMINSTER & BALLENTINE,0
37.01985,,-76.40407,2481,ABERDEEN & BRIARFIELD,0
36.95848,,-76.3264,3889,DECATUR & HUGHES,0
36.94767,,-76.31274,3888,GILBERT & FARRAGUT 2,0
36.80755,,-76.26385,0499,ATLANTIC & MYERS,0
36.80485,,-76.2633,0498,ATLANTIC & STRAWBERRY,0
36.7853,,-76.26635,0493,CAMPOSTELLA & PORTLOCK,0
36.77997,,-76.26818,0492,CAMPOSTELLA & WAKE,0
36.77887,,-76.26648,0491,MILITARY & CAMPOSTELLA,0
36.78147,,-76.26189,0490,MILITARY & BATTLEFIELD,0
36.79941,,-76.25935,0497,BROAD & CAMPOSTELLA,0
36.79856,,-76.25746,0496,CAMPOSTELLA & PROVIDENCE,0
36.79439,,-76.25935,0495,CAMPOSTELLA & HEMPLE,0
36.78861,,-76.26361,0494,CAMPOSTELLA & DIAMOND HILL,0
36.88493,,-76.24513,0369,CHESAPEAKE & WAYNE,0
36.88552,,-76.2446,0368,CHESAPEAKE & NANSEMOND,0
36.82628,,-76.26785,0819,WILSON & MANSON,0
36.93726,,-76.25452,0625,TIDEWATER & BECK,0
37.0883,,-76.47063,4000,CANON & TOWN CENTER,0
36.89974,,-76.23921,0360,CHESAPEAKE & DUNDALE (NHS),0
36.82236,,-76.23128,0815,INDIAN RIVER & HAZEL,0
36.8206,,-76.22521,0814,INDIAN RIVER & JUSTIS,0
36.85461,,-76.38302,4004,HIGH & FERGUSON,0
36.89166,,-76.2379,0364,CHESAPEAKE & GREEN,0
36.81021,,-76.21842,0811,MILITARY & AUBURN,0
36.80865,,-76.21756,0810,AUBURN & MILITARY,0
36.84312,,-76.2605,0627,KIMBALL & FORBES,0
36.91595,,-76.20969,0569,LITTLE CREEK & TARPON,0
36.91648,,-76.20685,0568,LITTLE CREEK & NANCY,0
36.91718,,-76.20321,0567,LITTLE CREEK & WALTERS,0
36.91803,,-76.19801,0566,LITTLE CREEK & WOODALL,0
36.91813,,-76.19484,0565,LITTLE CREEK & SHORE,0
36.91795,,-76.19509,0561,LITTLE CREEK & SHORE,0
36.94958,,-76.26019,0153,FIRST VIEW & MAPLE,0
36.87151,,-76.27649,0387,27TH & LEO,0
36.87081,,-76.27657,0386,26TH & LEO,0
36.87442,,-76.27103,0385,LAFAYETTE & ORLEANS 2,0
36.87516,,-76.2696,0384,LAFAYETTE & ORLEANS,0
36.87629,,-76.2679,0383,LAFAYETTE & DEGRASSE,0
36.87752,,-76.26741,0382,LAFAYETTE & VERSAILLES,0
36.87816,,-76.2651,0381,LAFAYETTE & RACINE,0
36.87784,,-76.26389,0380,LAFAYETTE & TIDEWATER,0
36.93927,,-76.25486,0623,TIDEWATER & TWILLEY,0
36.87114,,-76.27885,0389,27TH & FAWN,0
36.87136,,-76.27763,0388,27TH & GAZEL,0
36.87241,,-76.30142,2532,HAMPTON & WOODROW,0
36.99226,,-76.39576,2530,MAPLE & 25TH,0
37.01214,,-76.37439,2330,SHELL & RALEIGH,0
36.82707,,-76.33584,1595,TURNPIKE & WILSON 1,0
37.01227,,-76.36848,2332,VICTORIA & ALLEGHANY,0
36.99355,,-76.39749,2531,MAPLE & 27TH,0
37.01451,,-76.36434,2334,VICTORIA & HOMESTEAD,0
37.01726,,-76.36158,2335,LASALLE & ERVIN,0
37.01952,,-76.36262,2336,SHELL & LASALLE,0
36.83143,,-76.33162,1594,ROMANESQUE & MARKHAM,0
37.02182,,-76.35897,2338,SHELL & NEWPORT NEWS,0
36.9885,,-76.39097,2536,MAPLE & BLAIR,0
37.04273,,-76.43005,3072,TODDS & OLD BIG BETHEL,0
37.02192,,-76.35619,2339,NEWPORT NEWS & BACK RIVER,0
36.98618,,-76.39361,2537,BLAIR & CEDAR,0
36.85057,,-76.26368,0709,CORPREW & COVENANT,0
36.82563,,-76.3382,1596,TURNPIKE & FREDERICK,0
36.85023,,-76.24941,0703,CORPREW & BALLENTINE,0
37.04315,,-76.43548,3074,TODDS & WARNER,0
36.9063,,-76.15071,0090,SHORE & GELA,0
36.85054,,-76.25891,0707,CORPREW & OAKLAWN,0
36.85056,,-76.25768,0706,CORPREW & MAJESTIC,0
36.85061,,-76.2555,0705,CORPREW & NORCHESTER,0
36.83463,,-76.33691,1590,FLORIDA & HIGH,0
36.91801,,-76.27216,0039,WARDS CORNER TRANSFER,0
36.833,,-76.33173,1593,CUTHERELL & MCKINLEY,0
36.90708,,-76.27579,0034,GRANBY & FORSYTHE,0
36.91227,,-76.27356,0037,GRANBY & SUBURBAN,0
36.83454,,-76.33273,1592,HIGH & CUTHERELL,0
36.89985,,-76.27891,0031,GRANBY & CONWAY,0
36.89768,,-76.27959,0030,GRANBY & KINGSLEY,0
36.90583,,-76.27633,0033,GRANBY & SEEKEL,0
36.84994,,-76.20144,0917,POPLAR HALL & HONAKER,0
37.03313,,-76.44027,3078,ORCUTT & GOLDSBORO,0
36.82091,,-76.254,9206,BETHEL & HARLING,0
37.03096,,-76.4392,3079,ORCUTT & ANDOVER,0
37.01259,,-76.4197,2488,BRIARFIELD & OLD CHESTNUT,0
37.01199,,-76.42115,2489,BRIARFIELD & CHESTNUT,0
37.01449,,-76.41482,2486,BRIARFIELD & BRIARWOOD,0
37.0589,,-76.3004,2950,OLD BUCKROE & SALT PONDS,0
37.01698,,-76.41174,2484,BRIARFIELD & BIG BETHEL,0
37.01592,,-76.41304,2485,BRIARFIELD & JANET,0
37.0187,,-76.4056,2482,BRIARFIELD & ABERDEEN,0
37.01824,,-76.41012,2483,BRIARFIELD & BUTLER,0
37.02146,,-76.40433,2480,ABERDEEN & WINGFIELD,0
36.81925,,-76.34868,1598,TURNPIKE & UTAH,0
36.85516,,-76.23548,0637,VIRGINIA BEACH & KINGWOOD,0
36.93782,,-76.22098,0140,OCEAN VIEW & CAPEVIEW,0
36.84996,,-76.23994,0635,GATLING & TRICI,0
36.8536,,-76.24208,0634,SCOTT & VIRGINIA BEACH,0
37.03321,,-76.32405,2248,PEMBROKE & MERCURY,0
37.0193,,-76.32151,2249,COUNTY & MALLORY,0
36.94553,,-76.23786,0147,OCEAN VIEW & WARWICK,0
36.84219,,-76.25368,0630,KIMBALL & BALLENTINE,0
37.01771,,-76.3238,2244,MALLORY & WILLIAMS,0
37.01866,,-76.32239,2245,MALLORY & MELLEN,0
37.02073,,-76.31911,2247,MALLORY & SEWELL,0
37.0222,,-76.3258,2240,COUNTY & FRISSELL 1,0
37.02194,,-76.32536,2241,COUNTY & FRISSELL 2,0
37.0209,,-76.3236,2242,COUNTY & BAINBRIDGE,0
36.85574,,-76.23244,0638,VIRGINIA BEACH & AZALEA GARDEN,0
36.98604,,-76.41388,2464,WICKHAM & 27TH,0
36.99043,,-76.40848,2460,30TH & CHESTNUT,0
36.98917,,-76.40791,2461,28TH & CHESTNUT,0
36.98826,,-76.41019,2462,28TH & ROANOKE,0
36.76357,,-76.01484,5149,NIMMO & GENERAL BOOTH,0
36.95465,,-76.31981,5142,MARYLAND & HUGHES,0
36.9372,,-76.3212,5143,B & VIRGINIA,0
37.09369,,-76.47137,3401,MIDDLE GROUND & CANON 2,0
36.74891,,-76.53567,3402,PORTSMOUTH & NANSEMOND (MAGNOLIA),0
36.91608,,-76.29871,3405,LITTLE CREEK & MAJOR,0
36.85378,,-76.24839,3407,BALLENTINE & WOODLAND,0
36.85431,,-76.24843,3406,BALLENTINE & MAPLETON,0
36.86415,,-76.24145,1188,PRINCESS ANNE & NEVADA,0
36.85982,,-76.2985,0204,OLNEY & STOCKLEY GARDENS,0
37.03977,,-76.40297,2068,TODDS & MERCURY,0
37.03796,,-76.40039,2069,POWER PLANT & MERCURY,0
36.98936,,-76.4376,2798,WASHINGTON & 43RD,0
36.98808,,-76.43682,2799,WASHINGTON & 41ST,0
36.99804,,-76.44072,2792,HUNTINGTON & 56TH,0
36.99648,,-76.43977,2793,HUNTINGTON & 53RD,0
37.00247,,-76.44285,2790,HUNTINGTON & 62ND,0
37.00037,,-76.44204,2791,HUNTINGTON & 59TH,0
36.99255,,-76.43959,2796,WASHINGTON & 48TH,0
36.99128,,-76.43879,2797,WASHINGTON & 46TH,0
36.99433,,-76.43905,2794,50TH & HUNTINGTON,0
36.99319,,-76.43997,2795,WASHINGTON & 49TH,0
36.86162,,-76.30249,0205,OLNEY & NORFOLK GENERAL,0
36.81719,,-76.06676,5019,LYNNHAVEN & INTERNATIONAL,0
37.06142,,-76.4669,3255,JEFFERSON & NEWPORT,0
36.92183,,-76.30909,9308,ENIWETOK & CORREGIDOR,0
36.85425,,-76.26154,1180,PRINCESS ANNE & RAINEY,0
36.85456,,-76.26007,1181,PRINCESS ANNE & KENTON,0
36.92473,,-76.30357,9301,KING & INGRAM,0
36.95364,,-76.32097,5090,BUNKER HILL & MARYLAND,0
36.94779,,-76.31058,5093,GILBERT & FARRAGUT 1,0
37.10601,,-76.5062,2666,OYSTER POINT & RADCLIFF,0
37.10541,,-76.49952,2667,OYSTER POINT & HQ,0
37.10331,,-76.5049,2664,NETTLES & POINTER,0
37.10422,,-76.50569,2665,NETTLES & OYSTER POINT,0
37.10039,,-76.50092,2662,NETTLES & HUSSEY,0
37.10141,,-76.50276,2663,NETTLES & GEORGIA,0
37.08944,,-76.49599,2660,NETTLES & SANDPEBBLE,0
37.09383,,-76.49598,2661,NETTLE & CEMETARY,0
37.10509,,-76.49658,2668,OYSTER POINT & WATERMAN,0
37.11157,,-76.4977,2669,PATRICK HENRY MALL,0
36.99491,,-76.40899,2369,35TH & ABERDEEN,0
37.04512,,-76.2998,2938,BUCKROE & SEABOARD,0
37.04284,,-76.30312,2939,OLD BUCKROE & WOOD,0
37.04384,,-76.29557,2936,BUCKROE & FIFTH,0
37.04462,,-76.29796,2937,BUCKROE & MCGIVNEY,0
37.04314,,-76.2935,2935,BUCKROE & MALLORY,0
37.04134,,-76.29438,2932,PEMBROKE & MALLORY,0
37.0427,,-76.29345,2933,MALLORY & PEMBROKE,0
37.0418,,-76.2983,2930,PEMBROKE & ATLANTIC,0
37.04171,,-76.29553,2931,PEMBROKE & 4TH,0
36.75466,,-76.0588,3799,PRINCESS ANNE & JAMES MADISON,0
36.75574,,-76.06029,3798,PRINCESS ANNE & NIMMO,0
36.82111,,-76.30617,1645,EFFINGHAM & GARFIELD,0
36.821,,-76.30636,1644,EFFINGHAM & GARFIELD,0
36.81926,,-76.30609,1647,EFFINGHAM & PORTSMOUTH,0
36.8195,,-76.30629,1646,EFFINGHAM & ARGYLE,0
36.82455,,-76.30633,1641,EFFINGHAM & LINCOLN,0
36.82436,,-76.3065,1640,EFFINGHAM & LINCOLN,0
36.82307,,-76.30626,1643,EFFINGHAM & PALMER,0
36.82248,,-76.30642,1642,EFFINGHAM & FAYETTE,0
36.75895,,-76.02207,3797,PRINCESS ANNE & CROSSROAD,0
37.0279,,-76.32375,2226,MERCURY & WOODLAND,0
36.96958,,-76.41033,2808,6TH & AQUA VISTA,0
36.82226,,-76.3033,5691,8TH & JEFFERSON,0
37.09735,,-76.48908,3168,JEFFERSON & BELL KING,0
37.10044,,-76.49101,3169,JEFFERSON & HOGAN,0
37.09133,,-76.48539,3166,JEFFERSON & SAINT THOMAS,0
37.09412,,-76.48707,3167,JEFFERSON & ONNES,0
37.0831,,-76.48029,3164,JEFFERSON & THIMBLE SHOALS,0
37.08909,,-76.48398,3165,JEFFERSON & MIDDLE GROUND 2,0
37.07825,,-76.47732,3162,JEFFERSON & PAVILION,0
37.08043,,-76.47863,3163,JEFFERSON & PILOT HOUSE,0
37.0725,,-76.47793,3160,J CLYDE MORRIS & KINGSTOWNE,0
37.076,,-76.47591,3161,JEFFERSON & FORREST,0
36.99175,,-76.40905,2406,CHESTNUT & 32ND,0
36.84152,,-76.05633,1423,VIRGINIA BEACH & HUTTON,0
37.01669,,-76.45343,3368,HUNTINGTON PARK PNR,0
36.91038,,-76.07803,1424,SHORE & STARFISH,0
36.82236,,-76.15125,1427,PRINCESS ANNE & BAXTER,0
36.99303,,-76.40984,2407,CHESTNUT & 34TH,0
37.09385,,-76.47122,3364,MIDDLE GROUND & CANON 1,0
36.83739,,-76.35036,3365,HIGH & WILLETT,0
37.09874,,-76.47573,3367,CANON & ACHIEVEMENT,0
37.08789,,-76.48043,3360,FISHING POINT & MIDDLE GROUND,0
37.08999,,-76.46476,3361,ROCK LANDING & OMNI,0
37.09324,,-76.46646,3362,ROCK LANDING & BLUECRAB,0
37.09518,,-76.46746,3363,ROCK LANDING & MIDDLE GROUND,0
36.98994,,-76.40806,2405,CHESTNUT & 30TH,0
36.98802,,-76.41452,2402,30TH & WICKHAM,0
36.98841,,-76.41351,2403,30TH & ORCUTT,0
36.789,,-76.0972,1359,ROSEMONT & BUCKNER,0
36.79483,,-76.09882,1358,ROSEMONT & LYNNHAVEN (far),0
36.98523,,-76.41325,2400,WICKHAM & 26TH,0
36.98682,,-76.41425,2401,WICKHAM & 28TH,0
36.79817,,-76.09892,1357,ROSEMONT & DAHLIA,0
36.80248,,-76.10002,1356,ROSEMONT & NORTHWOOD,0
36.81234,,-76.09831,1354,ROSEMONT & HOLLAND,0
36.83357,,-76.31155,5555,COUNTY & PHOEBUS,0
36.83373,,-76.30525,5554,COUNTY & GREEN,0
36.83352,,-76.3093,5551,COUNTY & CRABAPPLE,0
36.83346,,-76.31224,5550,COUNTY & ELM,0
36.83364,,-76.30506,5553,COUNTY & GREEN,0
36.83362,,-76.30923,5552,COUNTY & CRABAPPLE,0
36.80547,,-76.19124,0807,INDIAN RIVER & STRICKLAND,0
36.91539,,-76.24923,0581,LITTLE CREEK & ELTON,0
36.84637,,-75.98575,5694,PARKS & 20TH,0
36.82805,,-76.16653,1515,PRINCESS ANNE & PARLIAMENT,0
36.76037,,-76.01885,1514,PRINCESS ANNE & GENERAL BOOTH,0
36.84321,,-76.26067,0700,KIMBALL & FORBES,0
36.83049,,-76.17331,1516,PRINCESS ANNE & CAPOT,0
36.88837,,-76.13737,1511,INDEPENDENCE & CULLEN,0
36.91524,,-76.23855,0580,LITTLE CREEK & PYTHIAN,0
36.75301,,-76.05618,1512,PRINCESS ANNE & DEGRASSE,0
36.90811,,-76.23638,0958,JOHNSTONS & OAKMONT,0
36.90789,,-76.23833,0959,JOHNSTONS & ROSEMONT,0
36.90899,,-76.23392,0956,MILITARY & JOHNSTONS,0
36.90882,,-76.23462,0957,JOHNSTONS & MILITARY,0
36.9011,,-76.22809,0954,MILITARY & LONGDALE,0
36.9044,,-76.2305,0955,MILITARY & SPRINGMEADOW,0
36.89707,,-76.22513,0952,MILITARY & IRWIN,0
36.89847,,-76.22615,0953,MILITARY & MEADOW LAKE,0
36.89321,,-76.2223,0950,MILITARY & NORVELLA,0
36.89559,,-76.22405,0951,MILITARY & NORVIEW,0
36.77694,,-76.26952,1798,MILITARY & CANADIAN,0
37.08837,,-76.48336,3184,MIDDLE GROUND & JEFFERSON,0
36.83064,,-76.34188,3185,BART & FREDERICK,0
36.79319,,-76.09955,3186,ROSEMONT & HARBINGER 2,0
37.07318,,-76.49369,3187,WARWICK & MINTON,0
37.10052,,-76.49132,3180,JEFFERSON & HOGAN,0
36.79239,,-76.16371,0802,INDIAN LAKES & HALIFAX,0
37.09418,,-76.48739,3182,JEFFERSON & MULLER,0
37.0914,,-76.48569,3183,JEFFERSON & SAINT THOMAS,0
37.08212,,-76.47997,3188,JEFFERSON & KINGSWAY,0
37.0805,,-76.47896,3189,JEFFERSON & PILOT HOUSE,0
37.12433,,-76.51345,3397,CHATHAM & BOYKIN,0
36.82653,,-76.26373,0828,MELON & CYPRESS,0
36.82444,,-76.26523,0829,MELON & BERKLEY,0
36.89892,,-76.24778,0822,PHILPOTTS & DEVONSHIRE,0
37.09493,,-76.46852,0823,MIDDLE GROUND & ROCK LANDING,0
36.81054,,-76.19934,0820,INDIAN RIVER P&R LOT,0
36.8984,,-76.25208,0821,PHILPOTTS & GLENOAK,0
36.83055,,-76.26167,0826,CAMPOSTELLA & INDIAN RIVER,0
36.82795,,-76.26248,0827,MELON & CAMPOSTELLA,0
36.84668,,-76.27088,0825,BRAMBLETON & PARK,0
36.91704,,-76.20285,0558,LITTLE CREEK & WALTERS,0
36.91769,,-76.19926,0559,LITTLE CREEK & REDMON,0
36.87066,,-76.26625,0598,TIDEWATER & HANCOCK,0
36.91565,,-76.22416,0552,LITTLE CREEK & WEDGEWOOD 2,0
36.91547,,-76.22345,0553,LITTLE CREEK & WILDWOOD,0
36.9165,,-76.22773,0550,LITTLE CREEK & LISA,0
36.93911,,-76.2546,0982,TIDEWATER & CHESTER,0
36.91542,,-76.21127,0556,LITTLE CREEK &  AZALEA GARDEN,0
37.0066,,-76.39476,2318,PEMBROKE & GREENBRIAR,0
36.91506,,-76.22004,0554,LITTLE CREEK & HALPRIN,0
36.91508,,-76.21375,0555,LITTLE CREEK & BROOKFIELD,0
37.00503,,-76.3857,2323,SHELL & ROBINSON,0
36.80606,,-76.09065,1447,HOLLAND & STONESHORE,0
37.00416,,-76.38954,2321,G & SHELL,0
37.00665,,-76.39038,2320,G & FINLAND,0
37.00954,,-76.3785,2327,SHELL & WINONA (Shell Apts.),0
37.00823,,-76.38057,2326,SHELL & POWHATAN,0
37.00728,,-76.38216,2325,SHELL & CHESTERFIELD,0
37.00605,,-76.38405,2324,SHELL & LOMBARD,0
37.01127,,-76.37581,2329,SHELL & MIDDLEBORO,0
37.01046,,-76.37707,2328,SHELL & CELEY,0
36.84442,,-75.97975,1113,VIRGINIA BEACH & BALTIC,0
37.02775,,-76.31241,2293,MALLORY & WILSON,0
36.84111,,-76.05959,1112,VIRGINIA BEACH & CRIPPLE CREEK,0
37.02598,,-76.31362,2292,MALLORY & SHERWOOD,0
36.78025,,-76.34712,1793,KING ARTHUR & ERIC,0
36.81408,,-76.10125,1443,HOLLAND & CHIMNEY HILL,0
37.02398,,-76.31503,2291,MALLORY & CHAMBERLIN,0
36.81499,,-76.10451,1442,HOLLAND & CHASEWAY,0
36.94811,,-76.25634,0048,GRANBY & BATTERSEA,0
37.02264,,-76.31626,2290,MALLORY & KELLY,0
36.8423,,-76.086,1117,VIRGINIA BEACH & GROVELAND,0
36.92798,,-76.2678,0040,GRANBY & CEMETARY,0
37.03274,,-76.30573,2297,MALLORY & SARGEANT,0
36.93461,,-76.26412,0042,GRANBY & BAYVIEW,0
36.81823,,-76.11845,1440,HOLLAND & PLAZA,0
36.93963,,-76.26131,0044,GRANBY & CHESTER,0
36.94143,,-76.26037,0045,GRANBY & BAY,0
36.94341,,-76.2597,0046,GRANBY & RANDALL,0
36.94477,,-76.25925,0047,GRANBY & GILPIN,0
36.81634,,-76.26405,1292,LIBERTY & JEFFERSON,0
37.03058,,-76.30902,2295,MALLORY & BERKLEY,0
36.779,,-76.34841,1792,GUENEVERE & SIR GAWAINE,0
37.02925,,-76.31093,2294,MALLORY & PRIMROSE,0
36.85162,,-76.19222,1290,KEMPSVILLE & KEMPSVILLE CIRCLE,0
36.99157,,-76.42405,2499,MADISON & 39TH,0
36.9922,,-76.42442,2498,MADISON & 40TH,0
36.8163,,-76.26372,1291,LIBERTY & GREER,0
37.0097,,-76.42643,2491,BRIARFIELD & ORCUTT,0
37.01067,,-76.42399,2490,BRIARFIELD & ROANOKE,0
36.79701,,-76.34976,2493,GUST & BUNCHE,0
37.0091,,-76.42794,2492,BRIARFIELD & WICKHAM,0
36.99669,,-76.42721,2495,MADISON & 47TH,0
36.99735,,-76.42743,2494,48TH & MADISON,0
36.99349,,-76.42522,2497,MADISON & 42ND,0
36.99478,,-76.42604,2496,MADISON & 44TH,0
36.85602,,-76.27391,0602,TIDEWATER & PRINCESS ANNE,0
36.94778,,-76.27627,8879,A & SEVENTH,0
36.86645,,-76.26914,0600,TIDEWATER & LINDENWOOD,0
36.8583,,-76.27285,0601,TIDEWATER & GOFF,0
36.96387,,-76.26823,0606,OCEAN VIEW & 7TH VIEW,0
36.96272,,-76.26583,0607,OCEAN VIEW & 6TH VIEW,0
37.02561,,-76.34956,2259,ARMISTEAD & QUEEN,0
36.94788,,-76.27555,8878,A & SEVENTH,0
37.0332,,-76.32724,2255,PEMBROKE & CALHOUN,0
36.82758,,-76.31252,2254,ELM & DUKE,0
37.03111,,-76.32457,2253,MERCURY & OLD POINT,0
37.03032,,-76.32431,2252,MERCURY & OAKLAND,0
37.02789,,-76.32346,2251,MERCURY & WOODLAND,0
37.02865,,-76.40537,2477,ABERDEEN & DAVIS,0
36.8807,,-76.23363,0646,SEWELLS POINT & DOLPHIN,0
37.03132,,-76.40575,2475,ABERDEEN & WEAVER,0
36.99615,,-76.43004,3224,JEFFERSON & 48TH,0
36.76828,,-76.01298,5150,GENERAL BOOTH & LONDON BRIDGE,0
36.85485,,-76.02458,5152,FIRST COLONIAL & WOLFSNARE (FAR SIDE),0
37.02535,,-76.40488,2479,ABERDEEN & GRANGER,0
36.86523,,-76.39908,5156,CHURCHLAND & POPLAR HILL,0
37.01188,,-76.44679,2785,WARWICK & 72ND,0
37.00208,,-76.43371,3227,JEFFERSON & ELLEN,0
37.00672,,-76.44571,2787,HUNTINGTON & 68TH,0
37.00972,,-76.44651,2786,HUNTINGTON & 70TH,0
37.02473,,-76.45479,2781,WARWICK & NORTH,0
37.0263,,-76.45577,2780,WARWICK & WOODFIN,0
37.02164,,-76.4529,2783,WARWICK & LAFAYETTE,0
37.023,,-76.45371,2782,WARWICK & SOUTH,0
37.00378,,-76.44356,2789,HUNTINGTON & 64TH,0
37.00451,,-76.44411,2788,HUNTINGTON & 65TH,0
37.02494,,-76.42322,2079,WEAVER & MARTHA LEE,0
37.02581,,-76.42166,2078,WEAVER & MANCHESTER,0
37.03198,,-76.40683,2073,WEAVER & ABERDEEN 2,0
37.03218,,-76.40445,2072,WEAVER & ABERDEEN,0
37.02612,,-76.36111,2265,QUEEN & PATTERSON,0
37.03547,,-76.39804,2070,QUEEN & WEAVER,0
37.027,,-76.4193,2077,WEAVER & BIG BETHEL,0
36.87496,,-76.23266,0644,SEWELLS POINT & BRUCE,0
37.0313,,-76.41069,2075,WEAVER & TWIN OAKS,0
37.0318,,-76.40834,2074,WEAVER & MARY PEAKE,0
37.03716,,-76.39802,2200,POWER PLANT & QUEEN,0
37.03383,,-76.39639,2201,QUEEN & CORNELIUS,0
37.03268,,-76.39359,2202,QUEEN & C C SPAULDING,0
37.02601,,-76.38394,2203,QUEEN & INDEPENDENCE,0
37.02535,,-76.3811,2204,QUEEN & INLANDVIEW,0
36.92667,,-76.29219,9315,DIVEN & MONROVIA,0
36.92355,,-76.30728,9312,INGERSOL & INGRAM,0
36.92271,,-76.30188,9311,BLANDY & MITSCHER,0
37.02385,,-76.3759,2205,QUEEN & SALTERS CREEK,0
37.02383,,-76.37451,2206,QUEEN & ADRIAN,0
36.94463,,-76.32248,5083,VIRGINIA & TAUSSIG,0
36.93727,,-76.32174,5082,B & VIRGINIA,0
37.02574,,-76.37019,2207,QUEEN & MCDONALD,0
36.94682,,-76.32873,5086,DECATUR & GILBERT,0
36.94664,,-76.3286,5085,DECATUR & GILBERT,0
37.09536,,-76.45053,3204,HARPERSVILLE & SAUNDERS,0
37.10526,,-76.4963,2671,OYSTER POINT & WATERMAN,0
37.10758,,-76.49581,2670,JEFFERSON & HQ,0
37.10489,,-76.51021,2673,OYSTER POINT & WARWICK,0
37.10619,,-76.50599,2672,OYSTER POINT & ARBORETUM,0
37.1107,,-76.51667,2675,WARWICK & YOUNGS MILL,0
37.10793,,-76.51458,2674,WARWICK & OLD GRIST MILL,0
37.11486,,-76.51958,2677,WARWICK & COLONY 2,0
37.11241,,-76.51786,2676,WARWICK & COLONY 1,0
37.11803,,-76.52234,2679,WARWICK & CAMPBELL,0
37.11693,,-76.52106,2678,WARWICK & SHARON,0
36.84274,,-76.23502,8009,INGLESIDE,0
37.04091,,-76.30194,2929,PEMBROKE & REYNOLDS,0
37.04037,,-76.30404,2928,PEMBROKE & OLD BUCKROE,0
37.04949,,-76.30614,2921,ANDREWS & NEWTON,0
37.05131,,-76.30307,2920,ANDREWS & FRANKTOWN,0
37.04553,,-76.31047,2923,AMHERST & BANCROFT,0
37.04825,,-76.30793,2922,ANDREWS & NICKERSON,0
37.0445,,-76.30934,2924,AMHERST & RAWOOD,0
37.0406,,-76.30802,2927,SKYLAND & PEMBROKE,0
37.04221,,-76.30687,2926,AMHERST & SKYLAND,0
36.87257,,-76.21084,0941,MILITARY & CORNICK,0
37.05877,,-76.34458,2900,LITTLE BACK RIVER & BEVERLY,0
36.84573,,-76.28559,8005,CIVIC PLAZA & GOVERNMENT,0
36.8815,,-76.21371,0943,MILITARY & ROBIN HOOD,0
37.08776,,-76.42462,3214,SAUNDERS & BIG BETHEL,0
37.07882,,-76.4257,3215,BIG BETHEL & TUPELO,0
37.0774,,-76.42595,3216,BIG BETHEL & BLACKBURN,0
37.07098,,-76.42706,3217,BIG BETHEL & BATTLE (mdblk),0
37.09313,,-76.44546,3210,DAPHIA & SAUNDERS 2,0
37.09121,,-76.44002,3211,SAUNDERS & KINGWOOD,0
37.08967,,-76.43497,3212,SAUNDERS & SANLUN LAKES,0
37.08822,,-76.43084,3213,SAUNDERS & EDGEMONT,0
36.8258,,-76.30638,1639,EFFINGHAM & HENRY,0
37.05851,,-76.33657,2904,CLEMWOOD & APOLLO,0
37.0263,,-76.43809,3218,NET CENTER,0
36.84735,,-76.18584,3219,NORTH CENTER & CENTER,0
36.88118,,-76.21778,0944,ROBIN HOOD & ALMEDA,0
37.02592,,-76.35542,2215,QUEEN & BACK RIVER,0
36.85119,,-76.2888,8003,MONTICELLO,0
37.07305,,-76.38209,2810,ARMISTEAD & SWEENEY,0
36.99621,,-76.40755,2368,35TH & ACORN,0
37.10394,,-76.49345,3179,JEFFERSON & OYSTER POINT,0
37.12418,,-76.50888,3178,JEFFERSON & HABERSHAM,0
37.026,,-76.35805,2214,QUEEN & MAPLEWOOD,0
37.12372,,-76.50815,3171,JEFFERSON & HABERSHAM,0
37.10354,,-76.49287,3170,JEFFERSON & OYSTER POINT 1,0
37.13489,,-76.50694,3173,MCMANUS & CHEROKEE,0
37.13021,,-76.50347,3172,NEWPORT NEWS & WMSBG  AIRPORT,0
37.14053,,-76.51136,3175,MCMANUS & DECLARATION,0
37.13831,,-76.50959,3174,MCMANUS & TURNBERRY,0
37.13642,,-76.51849,3177,JEFFERSON & DENBIGH,0
37.14247,,-76.51289,3176,MCMANUS & SAINT CLARE,0
37.00184,,-76.4022,2364,PEMBROKE & ABERDEEN,0
37.18598,,-76.57179,3379,WARWICK & CURTIS,0
36.86524,,-76.23915,1189,PRINCESS ANNE & RUSH,0
36.85994,,-76.24973,1186,PRINCESS ANNE & BALLENTINE,0
36.86047,,-76.24897,1187,PRINCESS ANNE & GRANDY,0
36.85618,,-76.25546,1184,PRINCESS ANNE & NORCHESTER,0
36.85729,,-76.25375,1185,PRINCESS ANNE & MERRIMAC,0
36.85479,,-76.2587,1182,PRINCESS ANNE & OAKLAWN,0
36.85508,,-76.25782,1183,PRINCESS ANNE & MAJESTIC,0
36.97732,,-76.64096,3371,SMITHFIELD PARK N RIDE,0
36.9518,,-76.53186,3370,SMITHS NECK & CARROLLTON,0
36.81334,,-76.32865,1740,DEEP CREEK & BALDWIN,0
36.81163,,-76.3278,1741,DEEP CREEK & CHARLES,0
36.80964,,-76.32889,1742,DEEP CREEK & BENTON,0
36.80647,,-76.33231,1743,GREENWOOD & MAUPIN,0
36.86491,,-76.29719,1166,PRINCESS ANNE & MANTEO,0
36.8636,,-76.2944,1167,PRINCESS ANNE & COLONIAL,0
36.84234,,-76.02037,1161,VIRGINIA BEACH & FIRST COLONIAL,0
36.84023,,-76.10068,1162,VIRGINIA BEACH & BIRCHWOOD MALL,0
36.84061,,-76.09787,1163,VIRGINIA BEACH & ROSEMONT,0
36.86246,,-76.29214,1168,PRINCESS ANNE & BOTETOURT,0
36.86154,,-76.29033,1169,PRINCESS ANNE & LLEWELLYN,0
37.01464,,-76.3529,2035,KECOUGHTAN & EARL,0
37.02406,,-76.37634,5520,QUEEN & ALLISON SUTTON,0
36.82304,,-76.29762,2584,PORT CENTRE & EDWARDS,0
37.03901,,-76.34906,5524,RIP RAP & PARKSIDE,0
37.03906,,-76.34916,5525,RIP RAP & EASTERLY,0
37.03563,,-76.35202,5526,RIP RAP & ROWE,0
37.0507,,-76.38992,5527,MARCELLA & WILLIAMSBURG,0
37.05488,,-76.38742,5528,MEDICAL & MARCELLA,0
37.05713,,-76.38834,5529,MEDICAL & VERNON STUART,0
36.99175,,-76.42757,3304,JEFFERSON & 41ST,0
37.03569,,-76.4082,2582,ABERDEEN & MERCURY,0
36.81064,,-76.07213,1366,LYNNHAVEN & CHERIE,0
37.13932,,-76.52078,3305,JEFFERSON & DENBIGH,0
36.81211,,-76.06992,1367,LYNNHAVEN & CHERIE (mid-block),0
37.03013,,-76.40547,2580,ABERDEEN & E. LEWIS,0
37.01268,,-76.35296,2034,KECOUGHTAN & IVY HOME,0
36.80138,,-76.35227,1568,VICTORY & GREENWOOD,0
36.80478,,-76.35424,1569,VICTORY & FREEDOM,0
36.80403,,-76.08268,1365,LYNNHAVEN & RIVERBEND,0
36.78357,,-76.35806,1788,AARON & SIR KAY,0
36.80193,,-76.32321,1560,GEORGE WASHINGTON & CHANNING,0
36.79895,,-76.32507,1561,GEORGE WASHINGTON & GARRETT,0
36.79777,,-76.3258,1562,GEORGE WASHINGTON & WOODLAND,0
36.79653,,-76.32655,1563,GEORGE WASHINGTON & RODGERS,0
36.84418,,-76.18455,1296,NEWTOWN & GREENWICH,0
36.85553,,-76.27612,1297,CHAPEL & VIRGINIA BEACH,0
36.84317,,-76.18931,1294,KEMPSVILLE & BANGOR,0
36.84217,,-76.18717,1295,NEWTOWN & KEMPSVILLE,0
36.85551,,-76.38409,4003,HIGH & CLOVER HILL,0
36.78866,,-76.09665,1360,ROSEMONT & BUCKNER,0
36.83483,,-76.32002,1712,HIGH & WILLIAMSBURG,0
37.01081,,-76.35312,2033,KECOUGHTAN & ELIZABETH,0
36.8909,,-76.22064,0949,MILITARY & AZALEA GARDEN,0
36.88363,,-76.22392,0948,AZALEA GARDEN & KENNEBECK,0
37.02522,,-76.33294,9387,SETTLERS LANDING & HAMPTON HARBOR,0
36.78139,,-76.35908,1789,SIR LANCELOT & CAMELOT,0
36.88661,,-76.28819,0737,NEWPORT & CONNECTICUT,0
36.84717,,-76.28973,8004,MACARTHUR & PLUME,0
37.01939,,-76.45156,2784,WARWICK & HORNET,0
36.84401,,-76.27804,8006,HARBOR PARK,0
36.84586,,-76.26937,8007,NORFOLK STATE UNV,0
36.88015,,-76.22118,0945,ROBIN HOOD & AYLIFF,0
36.8587,,-76.30349,8001,EVMS,0
36.85357,,-76.29388,8002,YORK & FREEMASON,0
36.86396,,-76.02845,9381,FIRST COLONIAL & FIRST GENERAL,0
36.81669,,-76.32765,5638,PORTSMOUTH & DEEP CREEK,0
37.04374,,-76.38949,5639,COLISEUM & VON SCHILLING,0
36.8495,,-76.29223,5636,BOUSH & TAZEWELL,0
36.83473,,-76.32419,1714,HIGH & JAMESTOWN,0
37.13245,,-76.54269,5633,OLD COURTHOUSE & WARWICK,0
37.08312,,-76.46676,3197,THIMBLE SHOALS & DILIGENCE,0
37.08077,,-76.46529,3196,THIMBLE SHOALS & GREAT OAK,0
37.07875,,-76.46409,3195,THIMBLE SHOALS & J CLYDE MORRIS,0
37.07715,,-76.4663,3194,J CLYDE MORRIS & SHADWELL,0
37.07587,,-76.46946,3193,J CLYDE MORRIS & FORREST,0
37.07455,,-76.47285,3192,J CLYDE MORRIS & IMPALA,0
37.07629,,-76.47636,3191,JEFFERSON & FORREST,0
36.77949,,-76.09702,3190,PRINCESS ANNE & CONCERT,0
37.08429,,-76.46308,3199,DILIGENCE & ROCK LANDING,0
37.08359,,-76.46747,3198,THIMBLE SHOALS & CANON,0
